28,29,09,327,00,24,05,326,00*47
$GPRMC,090415.667,A,5135.7891,N,00147.5657,W,0.196597,95.21,190609,,*24
$GPVTG,95.21,T,,M,0.196597,N,0.364091,K*63
$GPGGA,090416.667,5135.7886,N,00147.5657,W,1,05,1.4,130.4,M,48.0,M,64.3,0000*56
$GPGSA,A,3,13,16,07,04,10,,,,,,,,2.9,1.4,2.5*3C
$GPRMC,090416.667,A,5135.7886,N,00147.5657,W,0.169643,95.21,190609,,*2B
$GPVTG,95.21,T,,M,0.169643,N,0.314173,K*63
$GPGGA,090417.667,5135.7882,N,00147.5655,W,1,05,1.4,129.3,M,48.0,M,64.3,0000*5E
$GPGSA,A,3,13,16,07,04,10,,,,,,,,2.9,1.4,2.5*3C
$GPRMC,090417.667,A,5135.7882,N,00147.5655,W,0.226213,95.21,190609,,*25
$GPVTG,95.21,T,,M,0.226213,N,0.418938,K*66
$GPGGA,090418.667,5135.7879,N,00147.5654,W,1,05,1.4,128.2,M,48.0,M,64.3,0000*54
$GPGSA,A,3,13,16,07,04,10,,,,,,,,2.9,1.4,2.5*3C
$GPRMC,090418.667,A,5135.7879,N,00147.5654,W,0.246067,95.21,190609,,*28
$GPVTG,95.21,T,,M,0.246067,N,0.455707,K*6A
$GPGGA,090419.667,5135.7877,N,00147.5653,W,1,04,1.5,127.5,M,48.0,M,64.3,0000*54
$GPGSA,A,3,13,16,04,10,,,,,,,,,3.0,1.5,2.6*31
$GPRMC,090419.667,A,5135.7877,N,00147.5653,W,0.254072,95.21,190609,,*27
$GPVTG,95.21,T,,M,0.254072,N,0.470532,K*6E
$GPGGA,090420.666,5135.7875,N,00147.5653,W,1,05,1.4,127.6,M,48.0,M,120.3,0000*6F
$GPGSA,A,3,13,16,02,04,10,,,,,,,,2.8,1.4,2.4*39
$GPGSV,3,1,11,07,57,131,27,25,57,084,00,13,54,062,37,02,50,249,29*71
$GPGSV,3,2,11,04,37,198,31,10,32,295,30,08,31,176,00,23,18,068,*7B
$GPGSV,3,3,11,16,10,031,29,29,09,327,00,24,05,326,00*46
$GPRMC,090420.666,A,5135.7875,N,00147.5653,W,0.122701,95.21,190609,,*2F
$GPVTG,95.21,T,,M,0.122701,N,0.227238,K*66
$GPGGA,090421.666,5135.7874,N,00147.5654,W,1,05,1.4,128.2,M,48.0,M,120.3,0000*63
$GPGSA,A,3,13,16,02,04,10,,,,,,,,2.8,1.4,2.4*39
$GPRMC,090421.666,A,5135.7874,N,00147.5654,W,0.119020,95.21,190609,,*24
$GPVTG,95.21,T,,M,0.119020,N,0.220420,K*62
$GPGGA,090422.666,5135.7873,N,00147.5655,W,1,05,1.4,129.3,M,48.0,M,120.3,0000*66
$GPGSA,A,3,13,16,02,04,10,,,,,,,,2.8,1.4,2.4*39
$GPRMC,090422.666,A,5135.7873,N,00147.5655,W,0.116321,95.21,190609,,*2C
$GPVTG,95.21,T,,M,0.116321,N,0.215422,K*6B
$GPGGA,090423.666,5135.7872,N,00147.5657,W,1,05,1.4,130.7,M,48.0,M,120.3,0000*68
$GPGSA,A,3,13,16,02,04,10,,,,,,,,2.8,1.4,2.4*39
$GPRMC,090423.666,A,5135.7872,N,00147.5657,W,0.107904,95.21,190609,,*23
$GPVTG,95.21,T,,M,0.107904,N,0.199834,K*6A
$GPGGA,090424.666,5135.7871,N,00147.5659,W,1,05,1.4,132.1,M,48.0,M,120.3,0000*66
$GPGSA,A,3,13,16,02,04,10,,,,,,,,2.8,1.4,2.4*39
$GPRMC,090424.666,A,5135.7871,N,00147.5659,W,0.142185,95.21,190609,,*29
$GPVTG,95.21,T,,M,0.142185,N,0.263321,K*63
$GPGGA,090425.666,5135.7869,N,00147.5661,W,1,05,1.4,133.4,M,48.0,M,120.3,0000*61
$GPGSA,A,3,13,16,02,04,10,,,,,,,,2.8,1.4,2.4*39
$GPGSV,3,1,11,07,57,131,26,25,57,084,00,13,54,062,38,02,50,249,30*77
$GPGSV,3,2,11,04,37,198,31,10,32,295,30,08,31,176,00,23,18,068,*7B
$GPGSV,3,3,11,16,10,031,29,29,09,327,00,24,05,326,00*46
$GPRMC,090425.666,A,5135.7869,N,00147.5661,W,0.108742,95.21,190609,,*29
$GPVTG,95.21,T,,M,0.108742,N,0.201386,K*69
$GPGGA,090426.666,5135.7867,N,00147.5662,W,1,05,1.4,134.6,M,48.0,M,120.3,0000*6A
$GPGSA,A,3,13,16,02,04,10,,,,,,,,2.8,1.4,2.4*39
$GPRMC,090426.666,A,5135.7867,N,00147.5662,W,0.177906,95.21,190609,,*21
$GPVTG,95.21,T,,M,0.177906,N,0.329476,K*6C
$GPGGA,090427.666,5135.7866,N,00147.5664,W,1,05,1.4,135.8,M,48.0,M,120.3,0000*63
$GPGSA,A,3,13,16,02,04,10,,,,,,,,2.8,1.4,2.4*39
$GPRMC,090427.666,A,5135.7866,N,00147.5664,W,0.102353,95.21,190609,,*2F
$GPVTG,95.21,T,,M,0.102353,N,0.189553,K*6A
$GPGGA,090428.666,5135.7864,N,00147.5668,W,1,05,1.4,137.0,M,48.0,M,120.3,0000*68
$GPGSA,A,3,13,16,02,04,10,,,,,,,,2.8,1.4,2.4*39
$GPRMC,090428.666,A,5135.7864,N,00147.5668,W,0.139612,95.21,190609,,*26
$GPVTG,95.21,T,,M,0.139612,N,0.258556,K*68
$GPGGA,090429.666,5135.7864,N,00147.5672,W,1,05,1.4,138.1,M,48.0,M,120.3,0000*6C
$GPGSA,A,3,13,16,02,04,10,,,,,,,,2.8,1.4,2.4*39
$GPRMC,090429.666,A,5135.7864,N,00147.5672,W,0.081648,95.21,190609,,*21
$GPVTG,95.21,T,,M,0.081648,N,0.151208,K*63
$GPGGA,090430.666,5135.7863,N,00147.5676,W,1,05,1.4,139.4,M,48.0,M,120.3,0000*63
$GPGSA,A,3,13,16,02,04,10,,,,,,,,2.8,1.4,2.4*39
$GPGSV,3,1,11,07,57,131,26,25,57,084,00,13,54,062,38,02,50,249,30*77
$GPGSV,3,2,11,04,37,198,32,10,32,295,29,08,31,176,00,23,18,068,*70
$GPGSV,3,3,11,16,10,031,31,29,09,327,00,24,05,326,00*4F
$GPRMC,090430.666,A,5135.7863,N,00147.5676,W,0.112284,95.21,190609,,*25
$GPVTG,95.21,T,,M,0.112284,N,0.207946,K*6D
$GPGGA,090431.666,5135.7863,N,00147.5681,W,1,06,1.4,140.6,M,48.0,M,120.3,0000*65
$GPGSA,A,3,13,16,25,02,04,10,,,,,,,2.6,1.4,2.2*36
$GPRMC,090431.666,A,5135.7863,N,00147.5681,W,0.128499,95.21,190609,,*2F
$GPVTG,95.21,T,,M,0.128499,N,0.237975,K*6D
$GPGGA,090432.666,5135.7865,N,00147.5687,W,1,06,1.4,141.4,M,48.0,M,120.3,0000*65
$GPGSA,A,3,13,16,25,02,04,10,,,,,,,2.6,1.4,2.2*36
$GPRMC,090432.666,A,5135.7865,N,00147.5687,W,0.038853,95.21,190609,,*26
$GPVTG,95.21,T,,M,0.038853,N,0.071954,K*64
$GPGGA,090433.666,5135.7866,N,00147.5694,W,1,06,1.4,142.0,M,48.0,M,120.3,0000*62
$GPGSA,A,3,13,16,25,02,04,10,,,,,,,2.6,1.4,2.2*36
$GPRMC,090433.666,A,5135.7866,N,00147.5694,W,0.044842,95.21,190609,,*2D
$GPVTG,95.21,T,,M,0.044842,N,0.083046,K*68
$GPGGA,090434.665,5135.7868,N,00147.5699,W,1,06,1.4,142.6,M,48.0,M,120.3,0000*63
$GPGSA,A,3,13,16,25,02,04,10,,,,,,,2.6,1.4,2.2*36
$GPRMC,090434.665,A,5135.7868,N,00147.5699,W,0.061002,95.21,190609,,*21
$GPVTG,95.21,T,,M,0.061002,N,0.112973,K*65
$GPGGA,090435.665,5135.7870,N,00147.5705,W,1,05,2.0,143.1,M,48.0,M,120.3,0000*6D
$GPGSA,A,3,13,16,25,02,04,,,,,,,,3.0,2.0,2.2*37
$GPGSV,3,1,11,07,57,131,00,25,57,084,29,13,54,062,38,02,50,249,31*79
$GPGSV,3,2,11,04,37,198,31,10,32,295,27,08,31,176,00,23,18,068,*7D
$GPGSV,3,3,11,16,10,031,31,29,09,327,00,24,05,326,00*4F
$GPRMC,090435.665,A,5135.7870,N,00147.5705,W,0.069525,95.21,190609,,*25
$GPVTG,95.21,T,,M,0.069525,N,0.128758,K*63
$GPGGA,090436.665,5135.7873,N,00147.5709,W,1,05,1.4,143.9,M,48.0,M,120.3,0000*6E
$GPGSA,A,3,13,16,02,04,10,,,,,,,,2.8,1.4,2.4*39
$GPRMC,090436.665,A,5135.7873,N,00147.5709,W,0.042814,95.21,190609,,*2F
$GPVTG,95.21,T,,M,0.042814,N,0.079290,K*61
$GPGGA,090437.665,5135.7876,N,00147.5713,W,1,05,2.0,144.9,M,48.0,M,120.3,0000*61
$GPGSA,A,3,13,16,25,02,04,,,,,,,,3.0,2.0,2.2*37
$GPRMC,090437.665,A,5135.7876,N,00147.5713,W,0.120260,95.21,190609,,*2C
$GPVTG,95.21,T,,M,0.120260,N,0.222717,K*6B
$GPGGA,090438.665,5135.7880,N,00147.5718,W,1,05,2.0,146.0,M,48.0,M,120.3,0000*67
$GPGSA,A,3,13,16,25,02,04,,,,,,,,3.0,2.0,2.2*37
$GPRMC,090438.665,A,5135.7880,N,00147.5718,W,0.274719,95.21,190609,,*28
$GPVTG,95.21,T,,M,0.274719,N,0.508770,K*6C
$GPGGA,090439.665,5135.7884,N,00147.5723,W,1,06,1.4,147.1,M,48.0,M,120.3,0000*6E
$GPGSA,A,3,13,16,25,02,04,10,,,,,,,2.6,1.4,2.2*36
$GPRMC,090439.665,A,5135.7884,N,00147.5723,W,0.165679,95.21,190609,,*21
$GPVTG,95.21,T,,M,0.165679,N,0.306831,K*6A
$GPGGA,090440.665,5135.7887,N,00147.5726,W,1,06,1.4,148.4,M,48.0,M,120.3,0000*6C
$GPGSA,A,3,13,16,25,02,04,10,,,,,,,2.6,1.4,2.2*36
$GPGSV,3,1,11,07,57,131,00,25,57,084,28,13,54,062,39,02,50,249,31*79
$GPGSV,3,2,11,04,37,198,32,10,32,295,28,08,31,176,00,23,18,068,*71
$GPGSV,3,3,11,16,10,031,31,29,09,327,00,24,05,326,00*4F
$GPRMC,090440.665,A,5135.7887,N,00147.5726,W,0.146687,95.21,190609,,*29
$GPVTG,95.21,T,,M,0.146687,N,0.271659,K*6B
$GPGGA,090441.665,5135.7891,N,00147.5728,W,1,06,1.4,149.8,M,48.0,M,120.3,0000*69
$GPGSA,A,3,13,16,25,02,04,10,,,,,,,2.6,1.4,2.2*36
$GPRMC,090441.665,A,5135.7891,N,00147.5728,W,0.165775,95.21,190609,,*2C
$GPVTG,95.21,T,,M,0.165775,N,0.307009,K*65
$GPGGA,090442.665,5135.7893,N,00147.5730,W,1,05,1.4,151.2,M,48.0,M,120.3,0000*61
$GPGSA,A,3,13,16,02,04,10,,,,,,,,2.8,1.4,2.4*39
$GPRMC,090442.665,A,5135.7893,N,00147.5730,W,0.035814,95.21,190609,,*28
$GPVTG,95.21,T,,M,0.035814,N,0.066326,K*63
$GPGGA,090443.665,5135.7894,N,00147.5730,W,1,05,1.4,152.4,M,48.0,M,120.3,0000*62
$GPGSA,A,3,13,16,02,04,10,,,,,,,,2.8,1.4,2.4*39
$GPRMC,090443.665,A,5135.7894,N,00147.5730,W,0.133081,95.21,190609,,*2D
$GPVTG,95.21,T,,M,0.133081,N,0.246461,K*64
$GPGGA,090444.665,5135.7895,N,00147.5730,W,1,05,1.4,153.4,M,48.0,M,120.3,0000*65
$GPGSA,A,3,13,16,02,04,10,,,,,,,,2.8,1.4,2.4*39
$GPRMC,090444.665,A,5135.7895,N,00147.5730,W,0.123165,95.21,190609,,*21
$GPVTG,95.21,T,,M,0.123165,N,0.228097,K*6B
$GPGGA,090445.665,5135.7895,N,00147.5731,W,1,05,1.4,154.4,M,48.0,M,120.3,0000*62
$GPGSA,A,3,13,16,02,04,10,,,,,,,,2.8,1.4,2.4*39
$GPGSV,3,1,11,07,57,131,00,25,57,084,27,13,54,062,39,02,50,249,31*76
$GPGSV,3,2,11,04,37,198,31,10,32,295,29,08,31,176,00,23,18,068,*73
$GPGSV,3,3,11,16,10,031,31,29,09,327,00,24,05,326,00*4F
$GPRMC,090445.665,A,5135.7895,N,00147.5731,W,0.107153,95.21,190609,,*22
$GPVTG,95.21,T,,M,0.107153,N,0.198444,K*6A
$GPGGA,090446.665,5135.7896,N,00147.5732,W,1,05,1.4,155.3,M,48.0,M,120.3,0000*67
$GPGSA,A,3,13,16,02,04,10,,,,,,,,2.8,1.4,2.4*39
$GPRMC,090446.665,A,5135.7896,N,00147.5732,W,0.115276,95.21,190609,,*26
$GPVTG,95.21,T,,M,0.115276,N,0.213487,K*62
$GPGGA,090447.665,5135.7898,N,00147.5735,W,1,06,1.4,156.1,M,48.0,M,120.3,0000*6D
$GPGSA,A,3,13,16,25,02,04,10,,,,,,,2.6,1.4,2.2*36
$GPRMC,090447.665,A,5135.7898,N,00147.5735,W,0.019516,95.21,190609,,*22
$GPVTG,95.21,T,,M,0.019516,N,0.036142,K*67
$GPGGA,090448.665,5135.7900,N,00147.5739,W,1,06,1.4,157.1,M,48.0,M,120.3,0000*6F
$GPGSA,A,3,13,16,25,02,04,10,,,,,,,2.6,1.4,2.2*36
$GPRMC,090448.665,A,5135.7900,N,00147.5739,W,0.126525,95.21,190609,,*2C
$GPVTG,95.21,T,,M,0.126525,N,0.234320,K*6C
$GPGGA,090449.664,5135.7902,N,00147.5743,W,1,06,1.4,157.8,M,48.0,M,120.3,0000*69
$GPGSA,A,3,13,16,25,02,04,10,,,,,,,2.6,1.4,2.2*36
$GPRMC,090449.664,A,5135.7902,N,00147.5743,W,0.083586,95.21,190609,,*24
$GPVTG,95.21,T,,M,0.083586,N,0.154799,K*68
$GPGGA,090450.664,5135.7904,N,00147.5748,W,1,06,1.4,158.2,M,48.0,M,120.3,0000*69
$GPGSA,A,3,13,16,25,02,04,10,,,,,,,2.6,1.4,2.2*36
$GPGSV,3,1,11,07,58,130,00,25,57,084,28,13,54,062,40,02,50,249,32*7A
$GPGSV,3,2,11,04,37,198,31,10,32,295,29,08,31,176,00,23,18,068,*73
$GPGSV,3,3,11,16,10,031,30,29,09,327,00,24,05,326,00*4E
$GPRMC,090450.664,A,5135.7904,N,00147.5748,W,0.044994,95.21,190609,,*25
$GPVTG,95.21,T,,M,0.044994,N,0.083328,K*69
$GPGGA,090451.664,5135.7906,N,00147.5752,W,1,06,1.4,158.5,M,48.0,M,120.3,0000*66
$GPGSA,A,3,13,16,25,02,04,10,,,,,,,2.6,1.4,2.2*36
$GPRMC,090451.664,A,5135.7906,N,00147.5752,W,0.060938,95.21,190609,,*2D
$GPVTG,95.21,T,,M,0.060938,N,0.112855,K*61
$GPGGA,090452.664,5135.7908,N,00147.5756,W,1,06,1.4,158.7,M,48.0,M,120.3,0000*6D
$GPGSA,A,3,13,16,25,02,04,10,,,,,,,2.6,1.4,2.2*36
$GPRMC,090452.664,A,5135.7908,N,00147.5756,W,0.119290,95.21,190609,,*22
$GPVTG,95.21,T,,M,0.119290,N,0.220921,K*67
$GPGGA,090453.664,5135.7910,N,00147.5762,W,1,06,1.4,158.5,M,48.0,M,120.3,0000*60
$GPGSA,A,3,13,16,25,02,04,10,,,,,,,2.6,1.4,2.2*36
$GPRMC,090453.664,A,5135.7910,N,00147.5762,W,0.092430,95.21,190609,,*23
$GPVTG,95.21,T,,M,0.092430,N,0.171178,K*6A
$GPGGA,090454.664,5135.7912,N,00147.5770,W,1,06,1.4,157.7,M,48.0,M,120.3,0000*6B
$GPGSA,A,3,13,16,25,02,04,10,,,,,,,2.6,1.4,2.2*36
$GPRMC,090454.664,A,5135.7912,N,00147.5770,W,0.045201,95.21,190609,,*2B
$GPVTG,95.21,T,,M,0.045201,N,0.083710,K*60
$GPGGA,090455.664,5135.7912,N,00147.5777,W,1,05,1.7,157.0,M,48.0,M,120.3,0000*6A
$GPGSA,A,3,13,25,02,04,10,,,,,,,,5.8,1.7,5.6*38
$GPGSV,3,1,11,07,58,130,00,25,57,084,29,13,54,062,40,02,50,249,32*7B
$GPGSV,3,2,11,04,37,198,29,10,32,295,29,08,31,176,00,23,18,068,*7A
$GPGSV,3,3,11,16,10,031,27,29,09,327,00,24,05,326,00*48
$GPRMC,090455.664,A,5135.7912,N,00147.5777,W,0.119966,95.21,190609,,*2F
$GPVTG,95.21,T,,M,0.119966,N,0.222172,K*69
$GPGGA,090456.664,5135.7911,N,00147.5781,W,1,05,1.7,156.5,M,48.0,M,120.3,0000*67
$GPGSA,A,3,13,25,02,04,10,,,,,,,,5.8,1.7,5.6*38
$GPRMC,090456.664,A,5135.7911,N,00147.5781,W,0.206929,95.21,190609,,*20
$GPVTG,95.21,T,,M,0.206929,N,0.383225,K*64
$GPGGA,090457.664,5135.7908,N,00147.5783,W,1,05,1.7,156.3,M,48.0,M,120.3,0000*6A
$GPGSA,A,3,13,25,02,04,10,,,,,,,,5.8,1.7,5.6*38
$GPRMC,090457.664,A,5135.7908,N,00147.5783,W,0.221641,95.21,190609,,*2F
$GPVTG,95.21,T,,M,0.221641,N,0.410472,K*69
$GPGGA,090458.664,5135.7904,N,00147.5784,W,1,05,1.7,155.9,M,48.0,M,120.3,0000*67
$GPGSA,A,3,13,25,02,04,10,,,,,,,,5.8,1.7,5.6*38
$GPRMC,090458.664,A,5135.7904,N,00147.5784,W,0.220731,95.21,190609,,*2C
$GPVTG,95.21,T,,M,0.220731,N,0.408785,K*6C
$GPGGA,090459.664,5135.7899,N,00147.5783,W,1,05,1.7,155.7,M,48.0,M,120.3,0000*6A
$GPGSA,A,3,13,25,02,04,10,,,,,,,,5.8,1.7,5.6*38
$GPRMC,090459.664,A,5135.7899,N,00147.5783,W,0.191255,95.21,190609,,*21
$GPVTG,95.21,T,,M,0.191255,N,0.354197,K*69
$GPGGA,090500.664,5135.7895,N,00147.5782,W,1,04,11.4,155.9,M,48.0,M,120.3,0000*57
$GPGSA,A,3,13,25,02,10,,,,,,,,,31.6,11.4,29.5*0A
$GPGSV,3,1,11,07,58,130,00,25,57,084,29,13,54,062,40,02,50,249,33*7A
$GPGSV,3,2,11,04,37,198,27,10,32,295,29,08,31,176,00,23,18,068,*74
$GPGSV,3,3,11,16,10,031,25,29,09,327,00,24,05,326,00*4A
$GPRMC,090500.664,A,5135.7895,N,00147.5782,W,0.227196,95.21,190609,,*23
$GPVTG,95.21,T,,M,0.227196,N,0.420759,K*6B
$GPGGA,090501.664,5135.7891,N,00147.5780,W,1,04,11.4,156.1,M,48.0,M,120.3,0000*5B
$GPGSA,A,3,13,25,02,10,,,,,,,,,31.7,11.4,29.6*08
$GPRMC,090501.664,A,5135.7891,N,00147.5780,W,0.237545,95.21,190609,,*2F
$GPVTG,95.21,T,,M,0.237545,N,0.439924,K*6C
$GPGGA,090502.664,5135.7879,N,00147.5772,W,1,05,1.7,156.0,M,48.0,M,120.3,0000*61
$GPGSA,A,3,13,25,02,04,10,,,,,,,,5.8,1.7,5.6*38
$GPRMC,090502.664,A,5135.7879,N,00147.5772,W,0.133814,95.21,190609,,*29
$GPVTG,95.21,T,,M,0.133814,N,0.247819,K*62
$GPGGA,090503.664,5135.7878,N,00147.5769,W,1,04,11.5,156.3,M,48.0,M,120.3,0000*5A
$GPGSA,A,3,13,25,02,10,,,,,,,,,31.9,11.5,29.8*09
$GPRMC,090503.664,A,5135.7878,N,00147.5769,W,0.252493,95.21,190609,,*24
$GPVTG,95.21,T,,M,0.252493,N,0.467608,K*6F
$GPGGA,090504.663,5135.7878,N,00147.5765,W,1,04,11.5,156.5,M,48.0,M,120.3,0000*50
$GPGSA,A,3,13,25,02,10,,,,,,,,,32.0,11.5,29.9*02
$GPRMC,090504.663,A,5135.7878,N,00147.5765,W,0.225375,95.21,190609,,*27
$GPVTG,95.21,T,,M,0.225375,N,0.417387,K*65
$GPGGA,090505.663,5135.7871,N,00147.5747,W,1,05,1.7,155.7,M,48.0,M,120.3,0000*6B
$GPGSA,A,3,13,25,02,04,10,,,,,,,,5.8,1.7,5.6*38
$GPGSV,3,1,11,07,58,130,00,25,57,084,28,13,54,062,41,02,50,249,33*7A
$GPGSV,3,2,11,04,37,198,28,10,32,295,29,08,31,176,00,23,18,068,*7B
$GPGSV,3,3,11,16,10,031,23,29,09,327,00,24,05,326,00*4C
$GPRMC,090505.663,A,5135.7871,N,00147.5747,W,0.237906,95.21,190609,,*22
$GPVTG,95.21,T,,M,0.237906,N,0.440594,K*6E
$GPGGA,090506.663,5135.7866,N,00147.5742,W,1,05,1.7,155.7,M,48.0,M,120.3,0000*6B
$GPGSA,A,3,13,25,02,04,10,,,,,,,,5.8,1.7,5.6*38
$GPRMC,090506.663,A,5135.7866,N,00147.5742,W,0.222676,95.21,190609,,*2E
$GPVTG,95.21,T,,M,0.222676,N,0.412387,K*61
$GPGGA,090507.663,5135.7862,N,00147.5743,W,1,05,1.7,155.9,M,48.0,M,120.3,0000*61
$GPGSA,A,3,13,25,02,04,10,,,,,,,,5.8,1.7,5.6*38
$GPRMC,090507.663,A,5135.7862,N,00147.5743,W,0.135987,95.21,190609,,*2E
$GPVTG,95.21,T,,M,0.135987,N,0.251844,K*60
$GPGGA,090508.663,5135.7861,N,00147.5743,W,1,04,11.6,156.2,M,48.0,M,120.3,0000*54
$GPGSA,A,3,13,25,02,10,,,,,,,,,32.4,11.6,30.3*07
$GPRMC,090508.663,A,5135.7861,N,00147.5743,W,0.215139,95.21,190609,,*2E
$GPVTG,95.21,T,,M,0.215139,N,0.398430,K*67
$GPGGA,090509.663,5135.7860,N,00147.5744,W,1,04,11.7,156.8,M,48.0,M,120.3,0000*58
$GPGSA,A,3,13,25,02,10,,,,,,,,,32.6,11.7,30.4*03
$GPRMC,090509.663,A,5135.7860,N,00147.5744,W,0.169386,95.21,190609,,*27
$GPVTG,95.21,T,,M,0.169386,N,0.313697,K*65
$GPGGA,090510.663,5135.7860,N,00147.5746,W,1,04,11.7,157.4,M,48.0,M,120.3,0000*5F
$GPGSA,A,3,13,25,02,10,,,,,,,,,32.7,11.7,30.5*03
$GPGSV,3,1,11,07,58,130,00,25,57,084,31,13,54,062,41,02,50,249,33*72
$GPGSV,3,2,11,04,37,198,27,10,32,295,30,08,31,176,00,23,18,068,*7C
$GPGSV,3,3,11,16,10,031,22,29,09,327,00,24,05,326,00*4D
$GPRMC,090510.663,A,5135.7860,N,00147.5746,W,0.177189,95.21,190609,,*2F
$GPVTG,95.21,T,,M,0.177189,N,0.328147,K*65
$GPGGA,090511.663,5135.7859,N,00147.5747,W,1,04,11.7,158.2,M,48.0,M,120.3,0000*5C
$GPGSA,A,3,13,25,02,10,,,,,,,,,32.8,11.7,30.6*0F
$GPRMC,090511.663,A,5135.7859,N,00147.5747,W,0.172228,95.21,190609,,*28
$GPVTG,95.21,T,,M,0.172228,N,0.318959,K*6C
$GPGGA,090512.663,5135.7858,N,00147.5748,W,1,04,11.8,159.2,M,48.0,M,120.3,0000*5F
$GPGSA,A,3,13,25,02,10,,,,,,,,,32.9,11.8,30.7*00
$GPRMC,090512.663,A,5135.7858,N,00147.5748,W,0.159002,95.21,190609,,*26
$GPVTG,95.21,T,,M,0.159002,N,0.294466,K*6B
$GPGGA,090513.663,5135.7857,N,00147.5750,W,1,04,11.8,160.3,M,48.0,M,120.3,0000*53
$GPGSA,A,3,13,25,02,10,,,,,,,,,33.0,11.8,30.8*07
$GPRMC,090513.663,A,5135.7857,N,00147.5750,W,0.077957,95.21,190609,,*25
$GPVTG,95.21,T,,M,0.077957,N,0.144373,K*62
$GPGGA,090514.663,5135.7857,N,00147.5751,W,1,04,11.8,161.3,M,48.0,M,120.3,0000*54
$GPGSA,A,3,13,25,02,10,,,,,,,,,33.1,11.8,30.9*07
$GPRMC,090514.663,A,5135.7857,N,00147.5751,W,0.045238,95.21,190609,,*20
$GPVTG,95.21,T,,M,0.045238,N,0.083778,K*64
