105,00,10,07,284,00*7B
$GPGSV,3,3,09,16,06,056,00*42
$GPRMC,080152.542,A,5135.7927,N,00147.5688,W,0.000000,,190609,,*0D
$GPVTG,,T,,M,0.000000,N,0.000000,K*4E
$GPGGA,080153.542,5135.7906,N,00147.5698,W,1,03,6.0,161.9,M,48.0,M,0.0,0000*60
$GPGSA,A,2,04,02,23,,,,,,,,,,20.9,6.0,20.0*3B
$GPRMC,080153.542,A,5135.7906,N,00147.5698,W,0.000000,,190609,,*0E
$GPVTG,,T,,M,0.000000,N,0.000000,K*4E
$GPGGA,080154.542,5135.7887,N,00147.5695,W,1,03,6.0,161.9,M,48.0,M,0.0,0000*62
$GPGSA,A,2,04,02,23,,,,,,,,,,20.9,6.0,20.0*3B
$GPRMC,080154.542,A,5135.7887,N,00147.5695,W,0.000000,,190609,,*0C
$GPVTG,,T,,M,0.000000,N,0.000000,K*4E
$GPGGA,080155.542,5135.7848,N,00147.5699,W,1,03,6.0,161.9,M,48.0,M,0.0,0000*6C
$GPGSA,A,2,04,02,23,,,,,,,,,,20.9,6.0,20.0*3B
$GPRMC,080155.542,A,5135.7848,N,00147.5699,W,0.000000,,190609,,*02
$GPVTG,,T,,M,0.000000,N,0.000000,K*4E
$GPGGA,080156.541,5135.7848,N,00147.5706,W,1,03,6.0,161.9,M,48.0,M,0.0,0000*6B
$GPGSA,A,2,04,02,23,,,,,,,,,,20.9,6.0,20.0*3B
$GPRMC,080156.541,A,5135.7848,N,00147.5706,W,0.000000,,190609,,*05
$GPVTG,,T,,M,0.000000,N,0.000000,K*4E
$GPGGA,080157.541,5135.7857,N,00147.5708,W,1,03,6.0,161.9,M,48.0,M,0.0,0000*6A
$GPGSA,A,2,04,02,23,,,,,,,,,,20.9,6.0,20.0*3B
$GPGSV,3,1,09,13,82,090,00,04,62,225,35,25,48,133,00,02,45,293,38*7A
$GPGSV,3,2,09,23,45,061,46,07,32,156,00,20,15,105,00,10,07,284,00*7A
$GPGSV,3,3,09,16,06,056,00*42
$GPRMC,080157.541,A,5135.7857,N,00147.5708,W,0.000000,,190609,,*04
$GPVTG,,T,,M,0.000000,N,0.000000,K*4E
$GPGGA,080158.541,5135.7860,N,00147.5720,W,1,03,6.0,161.9,M,48.0,M,0.0,0000*6B
$GPGSA,A,2,04,02,23,,,,,,,,,,20.9,6.0,20.0*3B
$GPRMC,080158.541,A,5135.7860,N,00147.5720,W,0.000000,,190609,,*05
$GPVTG,,T,,M,0.000000,N,0.000000,K*4E
$GPGGA,080159.541,5135.7851,N,00147.5704,W,1,03,6.0,161.9,M,48.0,M,0.0,0000*6E
$GPGSA,A,2,04,02,23,,,,,,,,,,20.9,6.0,20.0*3B
$GPRMC,080159.541,A,5135.7851,N,00147.5704,W,0.000000,,190609,,*00
$GPVTG,,T,,M,0.000000,N,0.000000,K*4E
$GPGGA,080200.541,5135.7825,N,00147.5697,W,1,03,6.0,161.9,M,48.0,M,0.0,0000*69
$GPGSA,A,2,04,02,23,,,,,,,,,,20.9,6.0,20.0*3B
$GPRMC,080200.541,A,5135.7825,N,00147.5697,W,0.000000,,190609,,*07
$GPVTG,,T,,M,0.000000,N,0.000000,K*4E
$GPGGA,080201.541,5135.7867,N,00147.5687,W,1,03,6.0,161.9,M,48.0,M,0.0,0000*6F
$GPGSA,A,2,04,02,23,,,,,,,,,,20.9,6.0,20.0*3B
$GPRMC,080201.541,A,5135.7867,N,00147.5687,W,0.000000,,190609,,*01
$GPVTG,,T,,M,0.000000,N,0.000000,K*4E
$GPGGA,080202.541,5135.7878,N,00147.5703,W,1,03,6.0,161.9,M,48.0,M,0.0,0000*6F
$GPGSA,A,2,04,02,23,,,,,,,,,,20.9,6.0,20.0*3B
$GPGSV,3,1,09,13,82,090,00,04,62,225,35,25,48,133,00,02,45,293,38*7A
$GPGSV,3,2,09,23,45,061,46,07,32,156,00,20,15,105,00,10,07,284,00*7A
$GPGSV,3,3,09,16,06,056,00*42
$GPRMC,080202.541,A,5135.7878,N,00147.5703,W,0.000000,,190609,,*01
$GPVTG,,T,,M,0.000000,N,0.000000,K*4E
$GPGGA,080203.541,5135.7892,N,00147.5708,W,1,03,6.0,161.9,M,48.0,M,0.0,0000*61
$GPGSA,A,2,04,02,23,,,,,,,,,,20.9,6.0,20.0*3B
$GPRMC,080203.541,A,5135.7892,N,00147.5708,W,0.000000,,190609,,*0F
$GPVTG,,T,,M,0.000000,N,0.000000,K*4E
$GPGGA,080204.541,5135.7899,N,00147.5713,W,1,03,6.0,161.9,M,48.0,M,0.0,0000*67
$GPGSA,A,2,04,02,23,,,,,,,,,,20.9,6.0,20.0*3B
$GPRMC,080204.541,A,5135.7899,N,00147.5713,W,0.000000,,190609,,*09
$GPVTG,,T,,M,0.000000,N,0.000000,K*4E
$GPGGA,080205.541,5135.7915,N,00147.5733,W,1,03,6.0,161.9,M,48.0,M,0.0,0000*61
$GPGSA,A,2,04,02,23,,,,,,,,,,20.9,6.0,20.0*3B
$GPRMC,080205.541,A,5135.7915,N,00147.5733,W,0.000000,,190609,,*0F
$GPVTG,,T,,M,0.000000,N,0.000000,K*4E
$GPGGA,080206.541,5135.7852,N,00147.5720,W,1,03,6.0,161.9,M,48.0,M,0.0,0000*62
$GPGSA,A,2,04,02,23,,,,,,,,,,20.9,6.0,20.0*3B
$GPRMC,080206.541,A,5135.7852,N,00147.5720,W,0.000000,,190609,,*0C
$GPVTG,,T,,M,0.000000,N,0.000000,K*4E
$GPGGA,080207.541,5135.7858,N,00147.5733,W,1,03,6.0,161.9,M,48.0,M,0.0,0000*6B
$GPGSA,A,2,04,02,23,,,,,,,,,,20.9,6.0,20.0*3B
$GPGSV,3,1,09,13,82,090,00,04,62,225,33,25,48,133,00,02,45,293,38*7C
$GPGSV,3,2,09,23,45,061,47,07,32,156,00,20,15,105,00,10,07,284,00*7B
$GPGSV,3,3,09,16,06,056,00*42
$GPRMC,080207.541,A,5135.7858,N,00147.5733,W,0.000000,,190609,,*05
$GPVTG,,T,,M,0.000000,N,0.000000,K*4E
$GPGGA,080208.541,5135.7845,N,00147.5723,W,1,03,6.0,161.9,M,48.0,M,0.0,0000*69
$GPGSA,A,2,04,02,23,,,,,,,,,,20.9,6.0,20.0*3B
$GPRMC,080208.541,A,5135.7845,N,00147.5723,W,0.000000,,190609,,*07
$GPVTG,,T,,M,0.000000,N,0.000000,K*4E
$GPGGA,080209.541,5135.7790,N,00147.5725,W,1,03,6.0,161.9,M,48.0,M,0.0,0000*69
$GPGSA,A,2,04,02,23,,,,,,,,,,20.9,6.0,20.0*3B
$GPRMC,080209.541,A,5135.7790,N,00147.5725,W,0.000000,,190609,,*07
$GPVTG,,T,,M,0.000000,N,0.000000,K*4E
$GPGGA,080210.541,5135.7787,N,00147.5708,W,1,03,6.0,161.9,M,48.0,M,0.0,0000*68
$GPGSA,A,2,04,02,23,,,,,,,,,,20.9,6.0,20.0*3B
$GPRMC,080210.541,A,5135.7787,N,00147.5708,W,0.000000,,190609,,*06
$GPVTG,,T,,M,0.000000,N,0.000000,K*4E
$GPGGA,080211.540,5135.7924,N,00147.5704,W,1,04,2.3,269.6,M,48.0,M,0.0,0000*67
$GPGSA,A,3,04,25,02,23,,,,,,,,,11.1,2.3,10.9*3A
$GPRMC,080211.540,A,5135.7924,N,00147.5704,W,0.000000,,190609,,*0D
$GPVTG,,T,,M,0.000000,N,0.000000,K*4E
$GPGGA,080212.540,5135.7889,N,00147.5704,W,1,04,2.2,236.4,M,48.0,M,0.0,0000*6B
$GPGSA,A,3,04,25,02,23,,,,,,,,,9.8,2.2,9.5*3F
$GPGSV,3,1,09,13,82,090,00,04,62,225,33,25,48,133,32,02,45,293,38*7D
$GPGSV,3,2,09,23,45,061,46,07,32,156,00,20,15,105,00,10,07,284,00*7A
$GPGSV,3,3,09,16,06,056,00*42
$GPRMC,080212.540,A,5135.7889,N,00147.5704,W,0.088102,,190609,,*0B
$GPVTG,,T,,M,0.088102,N,0.163161,K*4F
$GPGGA,080213.540,5135.7889,N,00147.5697,W,1,04,2.3,238.7,M,48.0,M,0.0,0000*6D
$GPGSA,A,3,04,25,02,23,,,,,,,,,11.0,2.3,10.7*35
$GPRMC,080213.540,A,5135.7889,N,00147.5697,W,0.081343,,190609,,*0F
$GPVTG,,T,,M,0.081343,N,0.150645,K*40
$GPGGA,080214.540,5135.7915,N,00147.5702,W,1,04,2.3,251.0,M,48.0,M,0.0,0000*6B
$GPGSA,A,3,04,25,02,23,,,,,,,,,11.0,2.3,10.7*35
$GPRMC,080214.540,A,5135.7915,N,00147.5702,W,0.047588,,190609,,*0A
$GPVTG,,T,,M,0.047588,N,0.088131,K*4B
$GPGGA,080215.540,5135.7928,N,00147.5704,W,1,04,2.3,250.0,M,48.0,M,0.0,0000*63
$GPGSA,A,3,04,25,02,23,,,,,,,,,11.0,2.3,10.8*3A
$GPRMC,080215.540,A,5135.7928,N,00147.5704,W,0.067059,,190609,,*08
$GPVTG,,T,,M,0.067059,N,0.124190,K*4C
$GPGGA,080216.540,5135.7936,N,00147.5709,W,1,04,2.3,251.5,M,48.0,M,0.0,0000*66
$GPGSA,A,3,04,25,02,23,,,,,,,,,11.0,2.3,10.8*3A
$GPRMC,080216.540,A,5135.7936,N,00147.5709,W,0.055948,,190609,,*01
$GPVTG,,T,,M,0.055948,N,0.103613,K*4D
$GPGGA,080217.540,5135.7940,N,00147.5714,W,1,04,2.3,250.9,M,48.0,M,0.0,0000*67
$GPGSA,A,3,04,25,02,23,,,,,,,,,11.0,2.3,10.8*3A
$GPGSV,3,1,09,13,82,089,00,04,61,225,33,25,48,132,33,02,46,293,37*7A
$GPGSV,3,2,09,23,44,061,47,07,32,155,00,20,15,105,00,10,07,284,00*79
$GPGSV,3,3,09,16,06,056,00*42
$GPRMC,080217.540,A,5135.7940,N,00147.5714,W,0.104458,,190609,,*04
$GPVTG,,T,,M,0.104458,N,0.193453,K*4B
$GPGGA,080218.540,5135.7942,N,00147.5719,W,1,04,2.3,246.5,M,48.0,M,0.0,0000*6C
$GPGSA,A,3,04,25,02,23,,,,,,,,,11.0,2.3,10.8*3A
$GPRMC,080218.540,A,5135.7942,N,00147.5719,W,0.090833,,190609,,*09
$GPVTG,,T,,M,0.090833,N,0.168219,K*4A
$GPGGA,080219.540,5135.7943,N,00147.5722,W,1,04,2.3,242.1,M,48.0,M,0.0,0000*64
$GPGSA,A,3,04,25,02,23,,,,,,,,,11.1,2.3,10.8*3B
$GPRMC,080219.540,A,5135.7943,N,00147.5722,W,0.052068,,190609,,*09
$GPVTG,,T,,M,0.052068,N,0.096429,K*47
$GPGGA,080220.540,5135.7941,N,00147.5725,W,1,04,2.3,236.8,M,48.0,M,0.0,0000*61
$GPGSA,A,3,04,25,02,23,,,,,,,,,11.1,2.3,10.8*3B
$GPRMC,080220.540,A,5135.7941,N,00147.5725,W,0.035558,,190609,,*01
$GPVTG,,T,,M,0.035558,N,0.065851,K*4F
$GPGGA,080221.540,5135.7938,N,00147.5727,W,1,04,2.3,232.5,M,48.0,M,0.0,0000*65
$GPGSA,A,3,04,25,02,23,,,,,,,,,11.1,2.3,10.8*3B
$GPRMC,080221.540,A,5135.7938,N,00147.5727,W,0.092236,,190609,,*0E
$GPVTG,,T,,M,0.092236,N,0.170818,K*45
$GPGGA,080222.540,5135.7935,N,00147.5729,W,1,04,2.3,229.0,M,48.0,M,0.0,0000*6A
$GPGSA,A,3,04,25,02,23,,,,,,,,,11.1,2.3,10.9*3A
$GPGSV,3,1,09,13,82,089,00,04,61,225,33,25,48,132,33,02,46,293,38*75
$GPGSV,3,2,09,23,44,061,47,07,32,155,00,20,15,105,00,10,07,284,00*79
$GPGSV,3,3,09,16,06,056,00*42
$GPRMC,080222.540,A,5135.7935,N,00147.5729,W,0.024544,,190609,,*01
$GPVTG,,T,,M,0.024544,N,0.045454,K*49
$GPGGA,080223.540,5135.7932,N,00147.5731,W,1,04,2.3,225.6,M,48.0,M,0.0,0000*6F
$GPGSA,A,3,04,25,02,23,,,,,,,,,11.1,2.3,10.9*3A
$GPRMC,080223.540,A,5135.7932,N,00147.5731,W,0.071121,,190609,,*09
$GPVTG,,T,,M,0.071121,N,0.131714,K*4B
$GPGGA,080224.540,5135.7930,N,00147.5732,W,1,04,2.3,222.0,M,48.0,M,0.0,0000*68
$GPGSA,A,3,04,25,02,23,,,,,,,,,11.1,2.3,10.9*3A
105,00,10,07,284,00*7B
$GPGSV,3,3,09,16,06,056,00*42
$GPRMC,080152.542,A,5135.7927,N,00147.5688,W,0.000000,,190609,,*0D
$GPVTG,,T,,M,0.000000,N,0.000000,K*4E
$GPGGA,080153.542,5135.7906,N,00147.5698,W,1,03,6.0,161.9,M,48.0,M,0.0,0000*60
$GPGSA,A,2,04,02,23,,,,,,,,,,20.9,6.0,20.0*3B
$GPRMC,080153.542,A,5135.7906,N,00147.5698,W,0.000000,,190609,,*0E
$GPVTG,,T,,M,0.000000,N,0.000000,K*4E
$GPGGA,080154.542,5135.7887,N,00147.5695,W,1,03,6.0,161.9,M,48.0,M,0.0,0000*62
$GPGSA,A,2,04,02,23,,,,,,,,,,20.9,6.0,20.0*3B
$GPRMC,080154.542,A,5135.7887,N,00147.5695,W,0.000000,,190609,,*0C
$GPVTG,,T,,M,0.000000,N,0.000000,K*4E
$GPGGA,080155.542,5135.7848,N,00147.5699,W,1,03,6.0,161.9,M,48.0,M,0.0,0000*6C
$GPGSA,A,2,04,02,23,,,,,,,,,,20.9,6.0,20.0*3B
$GPRMC,080155.542,A,5135.7848,N,00147.5699,W,0.000000,,190609,,*02
$GPVTG,,T,,M,0.000000,N,0.000000,K*4E
$GPGGA,080156.541,5135.7848,N,00147.5706,W,1,03,6.0,161.9,M,48.0,M,0.0,0000*6B
$GPGSA,A,2,04,02,23,,,,,,,,,,20.9,6.0,20.0*3B
$GPRMC,080156.541,A,5135.7848,N,00147.5706,W,0.000000,,190609,,*05
$GPVTG,,T,,M,0.000000,N,0.000000,K*4E
$GPGGA,080157.541,5135.7857,N,00147.5708,W,1,03,6.0,161.9,M,48.0,M,0.0,0000*6A
$GPGSA,A,2,04,02,23,,,,,,,,,,20.9,6.0,20.0*3B
$GPGSV,3,1,09,13,82,090,00,04,62,225,35,25,48,133,00,02,45,293,38*7A
$GPGSV,3,2,09,23,45,061,46,07,32,156,00,20,15,105,00,10,07,284,00*7A
$GPGSV,3,3,09,16,06,056,00*42
$GPRMC,080157.541,A,5135.7857,N,00147.5708,W,0.000000,,190609,,*04
$GPVTG,,T,,M,0.000000,N,0.000000,K*4E
$GPGGA,080158.541,5135.7860,N,00147.5720,W,1,03,6.0,161.9,M,48.0,M,0.0,0000*6B
$GPGSA,A,2,04,02,23,,,,,,,,,,20.9,6.0,20.0*3B
$GPRMC,080158.541,A,5135.7860,N,00147.5720,W,0.000000,,190609,,*05
$GPVTG,,T,,M,0.000000,N,0.000000,K*4E
$GPGGA,080159.541,5135.7851,N,00147.5704,W,1,03,6.0,161.9,M,48.0,M,0.0,0000*6E
$GPGSA,A,2,04,02,23,,,,,,,,,,20.9,6.0,20.0*3B
$GPRMC,080159.541,A,5135.7851,N,00147.5704,W,0.000000,,190609,,*00
$GPVTG,,T,,M,0.000000,N,0.000000,K*4E
$GPGGA,080200.541,5135.7825,N,00147.5697,W,1,03,6.0,161.9,M,48.0,M,0.0,0000*69
$GPGSA,A,2,04,02,23,,,,,,,,,,20.9,6.0,20.0*3B
$GPRMC,080200.541,A,5135.7825,N,00147.5697,W,0.000000,,190609,,*07
$GPVTG,,T,,M,0.000000,N,0.000000,K*4E
$GPGGA,080201.541,5135.7867,N,00147.5687,W,1,03,6.0,161.9,M,48.0,M,0.0,0000*6F
$GPGSA,A,2,04,02,23,,,,,,,,,,20.9,6.0,20.0*3B
$GPRMC,080201.541,A,5135.7867,N,00147.5687,W,0.000000,,190609,,*01
$GPVTG,,T,,M,0.000000,N,0.000000,K*4E
$GPGGA,080202.541,5135.7878,N,00147.5703,W,1,03,6.0,161.9,M,48.0,M,0.0,0000*6F
$GPGSA,A,2,04,02,23,,,,,,,,,,20.9,6.0,20.0*3B
$GPGSV,3,1,09,13,82,090,00,04,62,225,35,25,48,133,00,02,45,293,38*7A
$GPGSV,3,2,09,23,45,061,46,07,32,156,00,20,15,105,00,10,07,284,00*7A
$GPGSV,3,3,09,16,06,056,00*42
$GPRMC,080202.541,A,5135.7878,N,00147.5703,W,0.000000,,190609,,*01
$GPVTG,,T,,M,0.000000,N,0.000000,K*4E
$GPGGA,080203.541,5135.7892,N,00147.5708,W,1,03,6.0,161.9,M,48.0,M,0.0,0000*61
$GPGSA,A,2,04,02,23,,,,,,,,,,20.9,6.0,20.0*3B
$GPRMC,080203.541,A,5135.7892,N,00147.5708,W,0.000000,,190609,,*0F
$GPVTG,,T,,M,0.000000,N,0.000000,K*4E
$GPGGA,080204.541,5135.7899,N,00147.5713,W,1,03,6.0,161.9,M,48.0,M,0.0,0000*67
$GPGSA,A,2,04,02,23,,,,,,,,,,20.9,6.0,20.0*3B
$GPRMC,080204.541,A,5135.7899,N,00147.5713,W,0.000000,,190609,,*09
$GPVTG,,T,,M,0.000000,N,0.000000,K*4E
$GPGGA,080205.541,5135.7915,N,00147.5733,W,1,03,6.0,161.9,M,48.0,M,0.0,0000*61
$GPGSA,A,2,04,02,23,,,,,,,,,,20.9,6.0,20.0*3B
$GPRMC,080205.541,A,5135.7915,N,00147.5733,W,0.000000,,190609,,*0F
$GPVTG,,T,,M,0.000000,N,0.000000,K*4E
$GPGGA,080206.541,5135.7852,N,00147.5720,W,1,03,6.0,161.9,M,48.0,M,0.0,0000*62
$GPGSA,A,2,04,02,23,,,,,,,,,,20.9,6.0,20.0*3B
$GPRMC,080206.541,A,5135.7852,N,00147.5720,W,0.000000,,190609,,*0C
$GPVTG,,T,,M,0.000000,N,0.000000,K*4E
$GPGGA,080207.541,5135.7858,N,00147.5733,W,1,03,6.0,161.9,M,48.0,M,0.0,0000*6B
$GPGSA,A,2,04,02,23,,,,,,,,,,20.9,6.0,20.0*3B
$GPGSV,3,1,09,13,82,090,00,04,62,225,33,25,48,133,00,02,45,293,38*7C
$GPGSV,3,2,09,23,45,061,47,07,32,156,00,20,15,105,00,10,07,284,00*7B
$GPGSV,3,3,09,16,06,056,00*42
$GPRMC,080207.541,A,5135.7858,N,00147.5733,W,0.000000,,190609,,*05
$GPVTG,,T,,M,0.000000,N,0.000000,K*4E
$GPGGA,080208.541,5135.7845,N,00147.5723,W,1,03,6.0,161.9,M,48.0,M,0.0,0000*69
$GPGSA,A,2,04,02,23,,,,,,,,,,20.9,6.0,20.0*3B
$GPRMC,080208.541,A,5135.7845,N,00147.5723,W,0.000000,,190609,,*07
$GPVTG,,T,,M,0.000000,N,0.000000,K*4E
$GPGGA,080209.541,5135.7790,N,00147.5725,W,1,03,6.0,161.9,M,48.0,M,0.0,0000*69
$GPGSA,A,2,04,02,23,,,,,,,,,,20.9,6.0,20.0*3B
$GPRMC,080209.541,A,5135.7790,N,00147.5725,W,0.000000,,190609,,*07
$GPVTG,,T,,M,0.000000,N,0.000000,K*4E
$GPGGA,080210.541,5135.7787,N,00147.5708,W,1,03,6.0,161.9,M,48.0,M,0.0,0000*68
$GPGSA,A,2,04,02,23,,,,,,,,,,20.9,6.0,20.0*3B
$GPRMC,080210.541,A,5135.7787,N,00147.5708,W,0.000000,,190609,,*06
$GPVTG,,T,,M,0.000000,N,0.000000,K*4E
$GPGGA,080211.540,5135.7924,N,00147.5704,W,1,04,2.3,269.6,M,48.0,M,0.0,0000*67
$GPGSA,A,3,04,25,02,23,,,,,,,,,11.1,2.3,10.9*3A
$GPRMC,080211.540,A,5135.7924,N,00147.5704,W,0.000000,,190609,,*0D
$GPVTG,,T,,M,0.000000,N,0.000000,K*4E
$GPGGA,080212.540,5135.7889,N,00147.5704,W,1,04,2.2,236.4,M,48.0,M,0.0,0000*6B
$GPGSA,A,3,04,25,02,23,,,,,,,,,9.8,2.2,9.5*3F
$GPGSV,3,1,09,13,82,090,00,04,62,225,33,25,48,133,32,02,45,293,38*7D
$GPGSV,3,2,09,23,45,061,46,07,32,156,00,20,15,105,00,10,07,284,00*7A
$GPGSV,3,3,09,16,06,056,00*42
$GPRMC,080212.540,A,5135.7889,N,00147.5704,W,0.088102,,190609,,*0B
$GPVTG,,T,,M,0.088102,N,0.163161,K*4F
$GPGGA,080213.540,5135.7889,N,00147.5697,W,1,04,2.3,238.7,M,48.0,M,0.0,0000*6D
$GPGSA,A,3,04,25,02,23,,,,,,,,,11.0,2.3,10.7*35
$GPRMC,080213.540,A,5135.7889,N,00147.5697,W,0.081343,,190609,,*0F
$GPVTG,,T,,M,0.081343,N,0.150645,K*40
$GPGGA,080214.540,5135.7915,N,00147.5702,W,1,04,2.3,251.0,M,48.0,M,0.0,0000*6B
$GPGSA,A,3,04,25,02,23,,,,,,,,,11.0,2.3,10.7*35
$GPRMC,080214.540,A,5135.7915,N,00147.5702,W,0.047588,,190609,,*0A
$GPVTG,,T,,M,0.047588,N,0.088131,K*4B
$GPGGA,080215.540,5135.7928,N,00147.5704,W,1,04,2.3,250.0,M,48.0,M,0.0,0000*63
$GPGSA,A,3,04,25,02,23,,,,,,,,,11.0,2.3,10.8*3A
$GPRMC,080215.540,A,5135.7928,N,00147.5704,W,0.067059,,190609,,*08
$GPVTG,,T,,M,0.067059,N,0.124190,K*4C
$GPGGA,080216.540,5135.7936,N,00147.5709,W,1,04,2.3,251.5,M,48.0,M,0.0,0000*66
$GPGSA,A,3,04,25,02,23,,,,,,,,,11.0,2.3,10.8*3A
$GPRMC,080216.540,A,5135.7936,N,00147.5709,W,0.055948,,190609,,*01
$GPVTG,,T,,M,0.055948,N,0.103613,K*4D
$GPGGA,080217.540,5135.7940,N,00147.5714,W,1,04,2.3,250.9,M,48.0,M,0.0,0000*67
$GPGSA,A,3,04,25,02,23,,,,,,,,,11.0,2.3,10.8*3A
$GPGSV,3,1,09,13,82,089,00,04,61,225,33,25,48,132,33,02,46,293,37*7A
$GPGSV,3,2,09,23,44,061,47,07,32,155,00,20,15,105,00,10,07,284,00*79
$GPGSV,3,3,09,16,06,056,00*42
$GPRMC,080217.540,A,5135.7940,N,00147.5714,W,0.104458,,190609,,*04
$GPVTG,,T,,M,0.104458,N,0.193453,K*4B
$GPGGA,080218.540,5135.7942,N,00147.5719,W,1,04,2.3,246.5,M,48.0,M,0.0,0000*6C
$GPGSA,A,3,04,25,02,23,,,,,,,,,11.0,2.3,10.8*3A
$GPRMC,080218.540,A,5135.7942,N,00147.5719,W,0.090833,,190609,,*09
$GPVTG,,T,,M,0.090833,N,0.168219,K*4A
$GPGGA,080219.540,5135.7943,N,00147.5722,W,1,04,2.3,242.1,M,48.0,M,0.0,0000*64
$GPGSA,A,3,04,25,02,23,,,,,,,,,11.1,2.3,10.8*3B
$GPRMC,080219.540,A,5135.7943,N,00147.5722,W,0.052068,,190609,,*09
$GPVTG,,T,,M,0.052068,N,0.096429,K*47
$GPGGA,080220.540,5135.7941,N,00147.5725,W,1,04,2.3,236.8,M,48.0,M,0.0,0000*61
$GPGSA,A,3,04,25,02,23,,,,,,,,,11.1,2.3,10.8*3B
$GPRMC,080220.540,A,5135.7941,N,00147.5725,W,0.035558,,190609,,*01
$GPVTG,,T,,M,0.035558,N,0.065851,K*4F
$GPGGA,080221.540,5135.7938,N,00147.5727,W,1,04,2.3,232.5,M,48.0,M,0.0,0000*65
$GPGSA,A,3,04,25,02,23,,,,,,,,,11.1,2.3,10.8*3B
$GPRMC,080221.540,A,5135.7938,N,00147.5727,W,0.092236,,190609,,*0E
$GPVTG,,T,,M,0.092236,N,0.170818,K*45
$GPGGA,080222.540,5135.7935,N,00147.5729,W,1,04,2.3,229.0,M,48.0,M,0.0,0000*6A
$GPGSA,A,3,04,25,02,23,,,,,,,,,11.1,2.3,10.9*3A
$GPGSV,3,1,09,13,82,089,00,04,61,225,33,25,48,132,33,02,46,293,38*75
$GPGSV,3,2,09,23,44,061,47,07,32,155,00,20,15,105,00,10,07,284,00*79
$GPGSV,3,3,09,16,06,056,00*42
$GPRMC,080222.540,A,5135.7935,N,00147.5729,W,0.024544,,190609,,*01
$GPVTG,,T,,M,0.024544,N,0.045454,K*49
$GPGGA,080223.540,5135.7932,N,00147.5731,W,1,04,2.3,225.6,M,48.0,M,0.0,0000*6F
$GPGSA,A,3,04,25,02,23,,,,,,,,,11.1,2.3,10.9*3A
$GPRMC,080223.540,A,5135.7932,N,00147.5731,W,0.071121,,190609,,*09
$GPVTG,,T,,M,0.071121,N,0.131714,K*4B
$GPGGA,080224.540,5135.7930,N,00147.5732,W,1,04,2.3,222.0,M,48.0,M,0.0,0000*68
$GPGSA,A,3,04,25,02,23,,,,,,,,,11.1,2.3,10.9*3A
105,00,10,07,284,00*7B
$GPGSV,3,3,09,16,06,056,00*42
$GPRMC,080152.542,A,5135.7927,N,00147.5688,W,0.000000,,190609,,*0D
$GPVTG,,T,,M,0.000000,N,0.000000,K*4E
$GPGGA,080153.542,5135.7906,N,00147.5698,W,1,03,6.0,161.9,M,48.0,M,0.0,0000*60
$GPGSA,A,2,04,02,23,,,,,,,,,,20.9,6.0,20.0*3B
$GPRMC,080153.542,A,5135.7906,N,00147.5698,W,0.000000,,190609,,*0E
$GPVTG,,T,,M,0.000000,N,0.000000,K*4E
$GPGGA,080154.542,5135.7887,N,00147.5695,W,1,03,6.0,161.9,M,48.0,M,0.0,0000*62
$GPGSA,A,2,04,02,23,,,,,,,,,,20.9,6.0,20.0*3B
$GPRMC,080154.542,A,5135.7887,N,00147.5695,W,0.000000,,190609,,*0C
$GPVTG,,T,,M,0.000000,N,0.000000,K*4E
$GPGGA,080155.542,5135.7848,N,00147.5699,W,1,03,6.0,161.9,M,48.0,M,0.0,0000*6C
$GPGSA,A,2,04,02,23,,,,,,,,,,20.9,6.0,20.0*3B
$GPRMC,080155.542,A,5135.7848,N,00147.5699,W,0.000000,,190609,,*02
$GPVTG,,T,,M,0.000000,N,0.000000,K*4E
$GPGGA,080156.541,5135.7848,N,00147.5706,W,1,03,6.0,161.9,M,48.0,M,0.0,0000*6B
$GPGSA,A,2,04,02,23,,,,,,,,,,20.9,6.0,20.0*3B
$GPRMC,080156.541,A,5135.7848,N,00147.5706,W,0.000000,,190609,,*05
$GPVTG,,T,,M,0.000000,N,0.000000,K*4E
$GPGGA,080157.541,5135.7857,N,00147.5708,W,1,03,6.0,161.9,M,48.0,M,0.0,0000*6A
$GPGSA,A,2,04,02,23,,,,,,,,,,20.9,6.0,20.0*3B
$GPGSV,3,1,09,13,82,090,00,04,62,225,35,25,48,133,00,02,45,293,38*7A
$GPGSV,3,2,09,23,45,061,46,07,32,156,00,20,15,105,00,10,07,284,00*7A
$GPGSV,3,3,09,16,06,056,00*42
$GPRMC,080157.541,A,5135.7857,N,00147.5708,W,0.000000,,190609,,*04
$GPVTG,,T,,M,0.000000,N,0.000000,K*4E
$GPGGA,080158.541,5135.7860,N,00147.5720,W,1,03,6.0,161.9,M,48.0,M,0.0,0000*6B
$GPGSA,A,2,04,02,23,,,,,,,,,,20.9,6.0,20.0*3B
$GPRMC,080158.541,A,5135.7860,N,00147.5720,W,0.000000,,190609,,*05
$GPVTG,,T,,M,0.000000,N,0.000000,K*4E
$GPGGA,080159.541,5135.7851,N,00147.5704,W,1,03,6.0,161.9,M,48.0,M,0.0,0000*6E
$GPGSA,A,2,04,02,23,,,,,,,,,,20.9,6.0,20.0*3B
$GPRMC,080159.541,A,5135.7851,N,00147.5704,W,0.000000,,190609,,*00
$GPVTG,,T,,M,0.000000,N,0.000000,K*4E
$GPGGA,080200.541,5135.7825,N,00147.5697,W,1,03,6.0,161.9,M,48.0,M,0.0,0000*69
$GPGSA,A,2,04,02,23,,,,,,,,,,20.9,6.0,20.0*3B
$GPRMC,080200.541,A,5135.7825,N,00147.5697,W,0.000000,,190609,,*07
$GPVTG,,T,,M,0.000000,N,0.000000,K*4E
$GPGGA,080201.541,5135.7867,N,00147.5687,W,1,03,6.0,161.9,M,48.0,M,0.0,0000*6F
$GPGSA,A,2,04,02,23,,,,,,,,,,20.9,6.0,20.0*3B
$GPRMC,080201.541,A,5135.7867,N,00147.5687,W,0.000000,,190609,,*01
$GPVTG,,T,,M,0.000000,N,0.000000,K*4E
$GPGGA,080202.541,5135.7878,N,00147.5703,W,1,03,6.0,161.9,M,48.0,M,0.0,0000*6F
$GPGSA,A,2,04,02,23,,,,,,,,,,20.9,6.0,20.0*3B
$GPGSV,3,1,09,13,82,090,00,04,62,225,35,25,48,133,00,02,45,293,38*7A
$GPGSV,3,2,09,23,45,061,46,07,32,156,00,20,15,105,00,10,07,284,00*7A
$GPGSV,3,3,09,16,06,056,00*42
$GPRMC,080202.541,A,5135.7878,N,00147.5703,W,0.000000,,190609,,*01
$GPVTG,,T,,M,0.000000,N,0.000000,K*4E
$GPGGA,080203.541,5135.7892,N,00147.5708,W,1,03,6.0,161.9,M,48.0,M,0.0,0000*61
$GPGSA,A,2,04,02,23,,,,,,,,,,20.9,6.0,20.0*3B
$GPRMC,080203.541,A,5135.7892,N,00147.5708,W,0.000000,,190609,,*0F
$GPVTG,,T,,M,0.000000,N,0.000000,K*4E
$GPGGA,080204.541,5135.7899,N,00147.5713,W,1,03,6.0,161.9,M,48.0,M,0.0,0000*67
$GPGSA,A,2,04,02,23,,,,,,,,,,20.9,6.0,20.0*3B
$GPRMC,080204.541,A,5135.7899,N,00147.5713,W,0.000000,,190609,,*09
$GPVTG,,T,,M,0.000000,N,0.000000,K*4E
$GPGGA,080205.541,5135.7915,N,00147.5733,W,1,03,6.0,161.9,M,48.0,M,0.0,0000*61
$GPGSA,A,2,04,02,23,,,,,,,,,,20.9,6.0,20.0*3B
$GPRMC,080205.541,A,5135.7915,N,00147.5733,W,0.000000,,190609,,*0F
$GPVTG,,T,,M,0.000000,N,0.000000,K*4E
$GPGGA,080206.541,5135.7852,N,00147.5720,W,1,03,6.0,161.9,M,48.0,M,0.0,0000*62
$GPGSA,A,2,04,02,23,,,,,,,,,,20.9,6.0,20.0*3B
$GPRMC,080206.541,A,5135.7852,N,00147.5720,W,0.000000,,190609,,*0C
$GPVTG,,T,,M,0.000000,N,0.000000,K*4E
$GPGGA,080207.541,5135.7858,N,00147.5733,W,1,03,6.0,161.9,M,48.0,M,0.0,0000*6B
$GPGSA,A,2,04,02,23,,,,,,,,,,20.9,6.0,20.0*3B
$GPGSV,3,1,09,13,82,090,00,04,62,225,33,25,48,133,00,02,45,293,38*7C
$GPGSV,3,2,09,23,45,061,47,07,32,156,00,20,15,105,00,10,07,284,00*7B
$GPGSV,3,3,09,16,06,056,00*42
$GPRMC,080207.541,A,5135.7858,N,00147.5733,W,0.000000,,190609,,*05
$GPVTG,,T,,M,0.000000,N,0.000000,K*4E
$GPGGA,080208.541,5135.7845,N,00147.5723,W,1,03,6.0,161.9,M,48.0,M,0.0,0000*69
$GPGSA,A,2,04,02,23,,,,,,,,,,20.9,6.0,20.0*3B
$GPRMC,080208.541,A,5135.7845,N,00147.5723,W,0.000000,,190609,,*07
$GPVTG,,T,,M,0.000000,N,0.000000,K*4E
$GPGGA,080209.541,5135.7790,N,00147.5725,W,1,03,6.0,161.9,M,48.0,M,0.0,0000*69
$GPGSA,A,2,04,02,23,,,,,,,,,,20.9,6.0,20.0*3B
$GPRMC,080209.541,A,5135.7790,N,00147.5725,W,0.000000,,190609,,*07
$GPVTG,,T,,M,0.000000,N,0.000000,K*4E
$GPGGA,080210.541,5135.7787,N,00147.5708,W,1,03,6.0,161.9,M,48.0,M,0.0,0000*68
$GPGSA,A,2,04,02,23,,,,,,,,,,20.9,6.0,20.0*3B
$GPRMC,080210.541,A,5135.7787,N,00147.5708,W,0.000000,,190609,,*06
$GPVTG,,T,,M,0.000000,N,0.000000,K*4E
$GPGGA,080211.540,5135.7924,N,00147.5704,W,1,04,2.3,269.6,M,48.0,M,0.0,0000*67
$GPGSA,A,3,04,25,02,23,,,,,,,,,11.1,2.3,10.9*3A
$GPRMC,080211.540,A,5135.7924,N,00147.5704,W,0.000000,,190609,,*0D
$GPVTG,,T,,M,0.000000,N,0.000000,K*4E
$GPGGA,080212.540,5135.7889,N,00147.5704,W,1,04,2.2,236.4,M,48.0,M,0.0,0000*6B
$GPGSA,A,3,04,25,02,23,,,,,,,,,9.8,2.2,9.5*3F
$GPGSV,3,1,09,13,82,090,00,04,62,225,33,25,48,133,32,02,45,293,38*7D
$GPGSV,3,2,09,23,45,061,46,07,32,156,00,20,15,105,00,10,07,284,00*7A
$GPGSV,3,3,09,16,06,056,00*42
$GPRMC,080212.540,A,5135.7889,N,00147.5704,W,0.088102,,190609,,*0B
$GPVTG,,T,,M,0.088102,N,0.163161,K*4F
$GPGGA,080213.540,5135.7889,N,00147.5697,W,1,04,2.3,238.7,M,48.0,M,0.0,0000*6D
$GPGSA,A,3,04,25,02,23,,,,,,,,,11.0,2.3,10.7*35
$GPRMC,080213.540,A,5135.7889,N,00147.5697,W,0.081343,,190609,,*0F
$GPVTG,,T,,M,0.081343,N,0.150645,K*40
$GPGGA,080214.540,5135.7915,N,00147.5702,W,1,04,2.3,251.0,M,48.0,M,0.0,0000*6B
$GPGSA,A,3,04,25,02,23,,,,,,,,,11.0,2.3,10.7*35
$GPRMC,080214.540,A,5135.7915,N,00147.5702,W,0.047588,,190609,,*0A
$GPVTG,,T,,M,0.047588,N,0.088131,K*4B
$GPGGA,080215.540,5135.7928,N,00147.5704,W,1,04,2.3,250.0,M,48.0,M,0.0,0000*63
$GPGSA,A,3,04,25,02,23,,,,,,,,,11.0,2.3,10.8*3A
$GPRMC,080215.540,A,5135.7928,N,00147.5704,W,0.067059,,190609,,*08
$GPVTG,,T,,M,0.067059,N,0.124190,K*4C
$GPGGA,080216.540,5135.7936,N,00147.5709,W,1,04,2.3,251.5,M,48.0,M,0.0,0000*66
$GPGSA,A,3,04,25,02,23,,,,,,,,,11.0,2.3,10.8*3A
$GPRMC,080216.540,A,5135.7936,N,00147.5709,W,0.055948,,190609,,*01
$GPVTG,,T,,M,0.055948,N,0.103613,K*4D
$GPGGA,080217.540,5135.7940,N,00147.5714,W,1,04,2.3,250.9,M,48.0,M,0.0,0000*67
$GPGSA,A,3,04,25,02,23,,,,,,,,,11.0,2.3,10.8*3A
$GPGSV,3,1,09,13,82,089,00,04,61,225,33,25,48,132,33,02,46,293,37*7A
$GPGSV,3,2,09,23,44,061,47,07,32,155,00,20,15,105,00,10,07,284,00*79
$GPGSV,3,3,09,16,06,056,00*42
$GPRMC,080217.540,A,5135.7940,N,00147.5714,W,0.104458,,190609,,*04
$GPVTG,,T,,M,0.104458,N,0.193453,K*4B
$GPGGA,080218.540,5135.7942,N,00147.5719,W,1,04,2.3,246.5,M,48.0,M,0.0,0000*6C
$GPGSA,A,3,04,25,02,23,,,,,,,,,11.0,2.3,10.8*3A
$GPRMC,080218.540,A,5135.7942,N,00147.5719,W,0.090833,,190609,,*09
$GPVTG,,T,,M,0.090833,N,0.168219,K*4A
$GPGGA,080219.540,5135.7943,N,00147.5722,W,1,04,2.3,242.1,M,48.0,M,0.0,0000*64
$GPGSA,A,3,04,25,02,23,,,,,,,,,11.1,2.3,10.8*3B
$GPRMC,080219.540,A,5135.7943,N,00147.5722,W,0.052068,,190609,,*09
$GPVTG,,T,,M,0.052068,N,0.096429,K*47
$GPGGA,080220.540,5135.7941,N,00147.5725,W,1,04,2.3,236.8,M,48.0,M,0.0,0000*61
$GPGSA,A,3,04,25,02,23,,,,,,,,,11.1,2.3,10.8*3B
$GPRMC,080220.540,A,5135.7941,N,00147.5725,W,0.035558,,190609,,*01
$GPVTG,,T,,M,0.035558,N,0.065851,K*4F
$GPGGA,080221.540,5135.7938,N,00147.5727,W,1,04,2.3,232.5,M,48.0,M,0.0,0000*65
$GPGSA,A,3,04,25,02,23,,,,,,,,,11.1,2.3,10.8*3B
$GPRMC,080221.540,A,5135.7938,N,00147.5727,W,0.092236,,190609,,*0E
$GPVTG,,T,,M,0.092236,N,0.170818,K*45
$GPGGA,080222.540,5135.7935,N,00147.5729,W,1,04,2.3,229.0,M,48.0,M,0.0,0000*6A
$GPGSA,A,3,04,25,02,23,,,,,,,,,11.1,2.3,10.9*3A
$GPGSV,3,1,09,13,82,089,00,04,61,225,33,25,48,132,33,02,46,293,38*75
$GPGSV,3,2,09,23,44,061,47,07,32,155,00,20,15,105,00,10,07,284,00*79
$GPGSV,3,3,09,16,06,056,00*42
$GPRMC,080222.540,A,5135.7935,N,00147.5729,W,0.024544,,190609,,*01
$GPVTG,,T,,M,0.024544,N,0.045454,K*49
$GPGGA,080223.540,5135.7932,N,00147.5731,W,1,04,2.3,225.6,M,48.0,M,0.0,0000*6F
$GPGSA,A,3,04,25,02,23,,,,,,,,,11.1,2.3,10.9*3A
$GPRMC,080223.540,A,5135.7932,N,00147.5731,W,0.071121,,190609,,*09
$GPVTG,,T,,M,0.071121,N,0.131714,K*4B
$GPGGA,080224.540,5135.7930,N,00147.5732,W,1,04,2.3,222.0,M,48.0,M,0.0,0000*68
$GPGSA,A,3,04,25,02,23,,,,,,,,,11.1,2.3,10.9*3A
105,00,10,07,284,00*7B
$GPGSV,3,3,09,16,06,056,00*42
$GPRMC,080152.542,A,5135.7927,N,00147.5688,W,0.000000,,190609,,*0D
$GPVTG,,T,,M,0.000000,N,0.000000,K*4E
$GPGGA,080153.542,5135.7906,N,00147.5698,W,1,03,6.0,161.9,M,48.0,M,0.0,0000*60
$GPGSA,A,2,04,02,23,,,,,,,,,,20.9,6.0,20.0*3B
$GPRMC,080153.542,A,5135.7906,N,00147.5698,W,0.000000,,190609,,*0E
$GPVTG,,T,,M,0.000000,N,0.000000,K*4E
$GPGGA,080154.542,5135.7887,N,00147.5695,W,1,03,6.0,161.9,M,48.0,M,0.0,0000*62
$GPGSA,A,2,04,02,23,,,,,,,,,,20.9,6.0,20.0*3B
$GPRMC,080154.542,A,5135.7887,N,00147.5695,W,0.000000,,190609,,*0C
$GPVTG,,T,,M,0.000000,N,0.000000,K*4E
$GPGGA,080155.542,5135.7848,N,00147.5699,W,1,03,6.0,161.9,M,48.0,M,0.0,0000*6C
$GPGSA,A,2,04,02,23,,,,,,,,,,20.9,6.0,20.0*3B
$GPRMC,080155.542,A,5135.7848,N,00147.5699,W,0.000000,,190609,,*02
$GPVTG,,T,,M,0.000000,N,0.000000,K*4E
$GPGGA,080156.541,5135.7848,N,00147.5706,W,1,03,6.0,161.9,M,48.0,M,0.0,0000*6B
$GPGSA,A,2,04,02,23,,,,,,,,,,20.9,6.0,20.0*3B
$GPRMC,080156.541,A,5135.7848,N,00147.5706,W,0.000000,,190609,,*05
$GPVTG,,T,,M,0.000000,N,0.000000,K*4E
$GPGGA,080157.541,5135.7857,N,00147.5708,W,1,03,6.0,161.9,M,48.0,M,0.0,0000*6A
$GPGSA,A,2,04,02,23,,,,,,,,,,20.9,6.0,20.0*3B
$GPGSV,3,1,09,13,82,090,00,04,62,225,35,25,48,133,00,02,45,293,38*7A
$GPGSV,3,2,09,23,45,061,46,07,32,156,00,20,15,105,00,10,07,284,00*7A
$GPGSV,3,3,09,16,06,056,00*42
$GPRMC,080157.541,A,5135.7857,N,00147.5708,W,0.000000,,190609,,*04
$GPVTG,,T,,M,0.000000,N,0.000000,K*4E
$GPGGA,080158.541,5135.7860,N,00147.5720,W,1,03,6.0,161.9,M,48.0,M,0.0,0000*6B
$GPGSA,A,2,04,02,23,,,,,,,,,,20.9,6.0,20.0*3B
$GPRMC,080158.541,A,5135.7860,N,00147.5720,W,0.000000,,190609,,*05
$GPVTG,,T,,M,0.000000,N,0.000000,K*4E
$GPGGA,080159.541,5135.7851,N,00147.5704,W,1,03,6.0,161.9,M,48.0,M,0.0,0000*6E
$GPGSA,A,2,04,02,23,,,,,,,,,,20.9,6.0,20.0*3B
$GPRMC,080159.541,A,5135.7851,N,00147.5704,W,0.000000,,190609,,*00
$GPVTG,,T,,M,0.000000,N,0.000000,K*4E
$GPGGA,080200.541,5135.7825,N,00147.5697,W,1,03,6.0,161.9,M,48.0,M,0.0,0000*69
$GPGSA,A,2,04,02,23,,,,,,,,,,20.9,6.0,20.0*3B
$GPRMC,080200.541,A,5135.7825,N,00147.5697,W,0.000000,,190609,,*07
$GPVTG,,T,,M,0.000000,N,0.000000,K*4E
$GPGGA,080201.541,5135.7867,N,00147.5687,W,1,03,6.0,161.9,M,48.0,M,0.0,0000*6F
$GPGSA,A,2,04,02,23,,,,,,,,,,20.9,6.0,20.0*3B
$GPRMC,080201.541,A,5135.7867,N,00147.5687,W,0.000000,,190609,,*01
$GPVTG,,T,,M,0.000000,N,0.000000,K*4E
$GPGGA,080202.541,5135.7878,N,00147.5703,W,1,03,6.0,161.9,M,48.0,M,0.0,0000*6F
$GPGSA,A,2,04,02,23,,,,,,,,,,20.9,6.0,20.0*3B
$GPGSV,3,1,09,13,82,090,00,04,62,225,35,25,48,133,00,02,45,293,38*7A
$GPGSV,3,2,09,23,45,061,46,07,32,156,00,20,15,105,00,10,07,284,00*7A
$GPGSV,3,3,09,16,06,056,00*42
$GPRMC,080202.541,A,5135.7878,N,00147.5703,W,0.000000,,190609,,*01
$GPVTG,,T,,M,0.000000,N,0.000000,K*4E
$GPGGA,080203.541,5135.7892,N,00147.5708,W,1,03,6.0,161.9,M,48.0,M,0.0,0000*61
$GPGSA,A,2,04,02,23,,,,,,,,,,20.9,6.0,20.0*3B
$GPRMC,080203.541,A,5135.7892,N,00147.5708,W,0.000000,,190609,,*0F
$GPVTG,,T,,M,0.000000,N,0.000000,K*4E
$GPGGA,080204.541,5135.7899,N,00147.5713,W,1,03,6.0,161.9,M,48.0,M,0.0,0000*67
$GPGSA,A,2,04,02,23,,,,,,,,,,20.9,6.0,20.0*3B
$GPRMC,080204.541,A,5135.7899,N,00147.5713,W,0.000000,,190609,,*09
$GPVTG,,T,,M,0.000000,N,0.000000,K*4E
$GPGGA,080205.541,5135.7915,N,00147.5733,W,1,03,6.0,161.9,M,48.0,M,0.0,0000*61
$GPGSA,A,2,04,02,23,,,,,,,,,,20.9,6.0,20.0*3B
$GPRMC,080205.541,A,5135.7915,N,00147.5733,W,0.000000,,190609,,*0F
$GPVTG,,T,,M,0.000000,N,0.000000,K*4E
$GPGGA,080206.541,5135.7852,N,00147.5720,W,1,03,6.0,161.9,M,48.0,M,0.0,0000*62
$GPGSA,A,2,04,02,23,,,,,,,,,,20.9,6.0,20.0*3B
$GPRMC,080206.541,A,5135.7852,N,00147.5720,W,0.000000,,190609,,*0C
$GPVTG,,T,,M,0.000000,N,0.000000,K*4E
$GPGGA,080207.541,5135.7858,N,00147.5733,W,1,03,6.0,161.9,M,48.0,M,0.0,0000*6B
$GPGSA,A,2,04,02,23,,,,,,,,,,20.9,6.0,20.0*3B
$GPGSV,3,1,09,13,82,090,00,04,62,225,33,25,48,133,00,02,45,293,38*7C
$GPGSV,3,2,09,23,45,061,47,07,32,156,00,20,15,105,00,10,07,284,00*7B
$GPGSV,3,3,09,16,06,056,00*42
$GPRMC,080207.541,A,5135.7858,N,00147.5733,W,0.000000,,190609,,*05
$GPVTG,,T,,M,0.000000,N,0.000000,K*4E
$GPGGA,080208.541,5135.7845,N,00147.5723,W,1,03,6.0,161.9,M,48.0,M,0.0,0000*69
$GPGSA,A,2,04,02,23,,,,,,,,,,20.9,6.0,20.0*3B
$GPRMC,080208.541,A,5135.7845,N,00147.5723,W,0.000000,,190609,,*07
$GPVTG,,T,,M,0.000000,N,0.000000,K*4E
$GPGGA,080209.541,5135.7790,N,00147.5725,W,1,03,6.0,161.9,M,48.0,M,0.0,0000*69
$GPGSA,A,2,04,02,23,,,,,,,,,,20.9,6.0,20.0*3B
$GPRMC,080209.541,A,5135.7790,N,00147.5725,W,0.000000,,190609,,*07
$GPVTG,,T,,M,0.000000,N,0.000000,K*4E
$GPGGA,080210.541,5135.7787,N,00147.5708,W,1,03,6.0,161.9,M,48.0,M,0.0,0000*68
$GPGSA,A,2,04,02,23,,,,,,,,,,20.9,6.0,20.0*3B
$GPRMC,080210.541,A,5135.7787,N,00147.5708,W,0.000000,,190609,,*06
$GPVTG,,T,,M,0.000000,N,0.000000,K*4E
$GPGGA,080211.540,5135.7924,N,00147.5704,W,1,04,2.3,269.6,M,48.0,M,0.0,0000*67
$GPGSA,A,3,04,25,02,23,,,,,,,,,11.1,2.3,10.9*3A
$GPRMC,080211.540,A,5135.7924,N,00147.5704,W,0.000000,,190609,,*0D
$GPVTG,,T,,M,0.000000,N,0.000000,K*4E
$GPGGA,080212.540,5135.7889,N,00147.5704,W,1,04,2.2,236.4,M,48.0,M,0.0,0000*6B
$GPGSA,A,3,04,25,02,23,,,,,,,,,9.8,2.2,9.5*3F
$GPGSV,3,1,09,13,82,090,00,04,62,225,33,25,48,133,32,02,45,293,38*7D
$GPGSV,3,2,09,23,45,061,46,07,32,156,00,20,15,105,00,10,07,284,00*7A
$GPGSV,3,3,09,16,06,056,00*42
$GPRMC,080212.540,A,5135.7889,N,00147.5704,W,0.088102,,190609,,*0B
$GPVTG,,T,,M,0.088102,N,0.163161,K*4F
$GPGGA,080213.540,5135.7889,N,00147.5697,W,1,04,2.3,238.7,M,48.0,M,0.0,0000*6D
$GPGSA,A,3,04,25,02,23,,,,,,,,,11.0,2.3,10.7*35
$GPRMC,080213.540,A,5135.7889,N,00147.5697,W,0.081343,,190609,,*0F
$GPVTG,,T,,M,0.081343,N,0.150645,K*40
$GPGGA,080214.540,5135.7915,N,00147.5702,W,1,04,2.3,251.0,M,48.0,M,0.0,0000*6B
$GPGSA,A,3,04,25,02,23,,,,,,,,,11.0,2.3,10.7*35
$GPRMC,080214.540,A,5135.7915,N,00147.5702,W,0.047588,,190609,,*0A
$GPVTG,,T,,M,0.047588,N,0.088131,K*4B
$GPGGA,080215.540,5135.7928,N,00147.5704,W,1,04,2.3,250.0,M,48.0,M,0.0,0000*63
$GPGSA,A,3,04,25,02,23,,,,,,,,,11.0,2.3,10.8*3A
$GPRMC,080215.540,A,5135.7928,N,00147.5704,W,0.067059,,190609,,*08
$GPVTG,,T,,M,0.067059,N,0.124190,K*4C
$GPGGA,080216.540,5135.7936,N,00147.5709,W,1,04,2.3,251.5,M,48.0,M,0.0,0000*66
$GPGSA,A,3,04,25,02,23,,,,,,,,,11.0,2.3,10.8*3A
$GPRMC,080216.540,A,5135.7936,N,00147.5709,W,0.055948,,190609,,*01
$GPVTG,,T,,M,0.055948,N,0.103613,K*4D
$GPGGA,080217.540,5135.7940,N,00147.5714,W,1,04,2.3,250.9,M,48.0,M,0.0,0000*67
$GPGSA,A,3,04,25,02,23,,,,,,,,,11.0,2.3,10.8*3A
$GPGSV,3,1,09,13,82,089,00,04,61,225,33,25,48,132,33,02,46,293,37*7A
$GPGSV,3,2,09,23,44,061,47,07,32,155,00,20,15,105,00,10,07,284,00*79
$GPGSV,3,3,09,16,06,056,00*42
$GPRMC,080217.540,A,5135.7940,N,00147.5714,W,0.104458,,190609,,*04
$GPVTG,,T,,M,0.104458,N,0.193453,K*4B
$GPGGA,080218.540,5135.7942,N,00147.5719,W,1,04,2.3,246.5,M,48.0,M,0.0,0000*6C
$GPGSA,A,3,04,25,02,23,,,,,,,,,11.0,2.3,10.8*3A
$GPRMC,080218.540,A,5135.7942,N,00147.5719,W,0.090833,,190609,,*09
$GPVTG,,T,,M,0.090833,N,0.168219,K*4A
$GPGGA,080219.540,5135.7943,N,00147.5722,W,1,04,2.3,242.1,M,48.0,M,0.0,0000*64
$GPGSA,A,3,04,25,02,23,,,,,,,,,11.1,2.3,10.8*3B
$GPRMC,080219.540,A,5135.7943,N,00147.5722,W,0.052068,,190609,,*09
$GPVTG,,T,,M,0.052068,N,0.096429,K*47
$GPGGA,080220.540,5135.7941,N,00147.5725,W,1,04,2.3,236.8,M,48.0,M,0.0,0000*61
$GPGSA,A,3,04,25,02,23,,,,,,,,,11.1,2.3,10.8*3B
$GPRMC,080220.540,A,5135.7941,N,00147.5725,W,0.035558,,190609,,*01
$GPVTG,,T,,M,0.035558,N,0.065851,K*4F
$GPGGA,080221.540,5135.7938,N,00147.5727,W,1,04,2.3,232.5,M,48.0,M,0.0,0000*65
$GPGSA,A,3,04,25,02,23,,,,,,,,,11.1,2.3,10.8*3B
$GPRMC,080221.540,A,5135.7938,N,00147.5727,W,0.092236,,190609,,*0E
$GPVTG,,T,,M,0.092236,N,0.170818,K*45
$GPGGA,080222.540,5135.7935,N,00147.5729,W,1,04,2.3,229.0,M,48.0,M,0.0,0000*6A
$GPGSA,A,3,04,25,02,23,,,,,,,,,11.1,2.3,10.9*3A
$GPGSV,3,1,09,13,82,089,00,04,61,225,33,25,48,132,33,02,46,293,38*75
$GPGSV,3,2,09,23,44,061,47,07,32,155,00,20,15,105,00,10,07,284,00*79
$GPGSV,3,3,09,16,06,056,00*42
$GPRMC,080222.540,A,5135.7935,N,00147.5729,W,0.024544,,190609,,*01
$GPVTG,,T,,M,0.024544,N,0.045454,K*49
$GPGGA,080223.540,5135.7932,N,00147.5731,W,1,04,2.3,225.6,M,48.0,M,0.0,0000*6F
$GPGSA,A,3,04,25,02,23,,,,,,,,,11.1,2.3,10.9*3A
$GPRMC,080223.540,A,5135.7932,N,00147.5731,W,0.071121,,190609,,*09
$GPVTG,,T,,M,0.071121,N,0.131714,K*4B
$GPGGA,080224.540,5135.7930,N,00147.5732,W,1,04,2.3,222.0,M,48.0,M,0.0,0000*68
$GPGSA,A,3,04,25,02,23,,,,,,,,,11.1,2.3,10.9*3A
105,00,10,07,284,00*7B
$GPGSV,3,3,09,16,06,056,00*42
$GPRMC,080152.542,A,5135.7927,N,00147.5688,W,0.000000,,190609,,*0D
$GPVTG,,T,,M,0.000000,N,0.000000,K*4E
$GPGGA,080153.542,5135.7906,N,00147.5698,W,1,03,6.0,161.9,M,48.0,M,0.0,0000*60
$GPGSA,A,2,04,02,23,,,,,,,,,,20.9,6.0,20.0*3B
$GPRMC,080153.542,A,5135.7906,N,00147.5698,W,0.000000,,190609,,*0E
$GPVTG,,T,,M,0.000000,N,0.000000,K*4E
$GPGGA,080154.542,5135.7887,N,00147.5695,W,1,03,6.0,161.9,M,48.0,M,0.0,0000*62
$GPGSA,A,2,04,02,23,,,,,,,,,,20.9,6.0,20.0*3B
$GPRMC,080154.542,A,5135.7887,N,00147.5695,W,0.000000,,190609,,*0C
$GPVTG,,T,,M,0.000000,N,0.000000,K*4E
$GPGGA,080155.542,5135.7848,N,00147.5699,W,1,03,6.0,161.9,M,48.0,M,0.0,0000*6C
$GPGSA,A,2,04,02,23,,,,,,,,,,20.9,6.0,20.0*3B
$GPRMC,080155.542,A,5135.7848,N,00147.5699,W,0.000000,,190609,,*02
$GPVTG,,T,,M,0.000000,N,0.000000,K*4E
$GPGGA,080156.541,5135.7848,N,00147.5706,W,1,03,6.0,161.9,M,48.0,M,0.0,0000*6B
$GPGSA,A,2,04,02,23,,,,,,,,,,20.9,6.0,20.0*3B
$GPRMC,080156.541,A,5135.7848,N,00147.5706,W,0.000000,,190609,,*05
$GPVTG,,T,,M,0.000000,N,0.000000,K*4E
$GPGGA,080157.541,5135.7857,N,00147.5708,W,1,03,6.0,161.9,M,48.0,M,0.0,0000*6A
$GPGSA,A,2,04,02,23,,,,,,,,,,20.9,6.0,20.0*3B
$GPGSV,3,1,09,13,82,090,00,04,62,225,35,25,48,133,00,02,45,293,38*7A
$GPGSV,3,2,09,23,45,061,46,07,32,156,00,20,15,105,00,10,07,284,00*7A
$GPGSV,3,3,09,16,06,056,00*42
$GPRMC,080157.541,A,5135.7857,N,00147.5708,W,0.000000,,190609,,*04
$GPVTG,,T,,M,0.000000,N,0.000000,K*4E
$GPGGA,080158.541,5135.7860,N,00147.5720,W,1,03,6.0,161.9,M,48.0,M,0.0,0000*6B
$GPGSA,A,2,04,02,23,,,,,,,,,,20.9,6.0,20.0*3B
$GPRMC,080158.541,A,5135.7860,N,00147.5720,W,0.000000,,190609,,*05
$GPVTG,,T,,M,0.000000,N,0.000000,K*4E
$GPGGA,080159.541,5135.7851,N,00147.5704,W,1,03,6.0,161.9,M,48.0,M,0.0,0000*6E
$GPGSA,A,2,04,02,23,,,,,,,,,,20.9,6.0,20.0*3B
$GPRMC,080159.541,A,5135.7851,N,00147.5704,W,0.000000,,190609,,*00
$GPVTG,,T,,M,0.000000,N,0.000000,K*4E
$GPGGA,080200.541,5135.7825,N,00147.5697,W,1,03,6.0,161.9,M,48.0,M,0.0,0000*69
$GPGSA,A,2,04,02,23,,,,,,,,,,20.9,6.0,20.0*3B
$GPRMC,080200.541,A,5135.7825,N,00147.5697,W,0.000000,,190609,,*07
$GPVTG,,T,,M,0.000000,N,0.000000,K*4E
$GPGGA,080201.541,5135.7867,N,00147.5687,W,1,03,6.0,161.9,M,48.0,M,0.0,0000*6F
$GPGSA,A,2,04,02,23,,,,,,,,,,20.9,6.0,20.0*3B
$GPRMC,080201.541,A,5135.7867,N,00147.5687,W,0.000000,,190609,,*01
$GPVTG,,T,,M,0.000000,N,0.000000,K*4E
$GPGGA,080202.541,5135.7878,N,00147.5703,W,1,03,6.0,161.9,M,48.0,M,0.0,0000*6F
$GPGSA,A,2,04,02,23,,,,,,,,,,20.9,6.0,20.0*3B
$GPGSV,3,1,09,13,82,090,00,04,62,225,35,25,48,133,00,02,45,293,38*7A
$GPGSV,3,2,09,23,45,061,46,07,32,156,00,20,15,105,00,10,07,284,00*7A
$GPGSV,3,3,09,16,06,056,00*42
$GPRMC,080202.541,A,5135.7878,N,00147.5703,W,0.000000,,190609,,*01
$GPVTG,,T,,M,0.000000,N,0.000000,K*4E
$GPGGA,080203.541,5135.7892,N,00147.5708,W,1,03,6.0,161.9,M,48.0,M,0.0,0000*61
$GPGSA,A,2,04,02,23,,,,,,,,,,20.9,6.0,20.0*3B
$GPRMC,080203.541,A,5135.7892,N,00147.5708,W,0.000000,,190609,,*0F
$GPVTG,,T,,M,0.000000,N,0.000000,K*4E
$GPGGA,080204.541,5135.7899,N,00147.5713,W,1,03,6.0,161.9,M,48.0,M,0.0,0000*67
$GPGSA,A,2,04,02,23,,,,,,,,,,20.9,6.0,20.0*3B
$GPRMC,080204.541,A,5135.7899,N,00147.5713,W,0.000000,,190609,,*09
$GPVTG,,T,,M,0.000000,N,0.000000,K*4E
$GPGGA,080205.541,5135.7915,N,00147.5733,W,1,03,6.0,161.9,M,48.0,M,0.0,0000*61
$GPGSA,A,2,04,02,23,,,,,,,,,,20.9,6.0,20.0*3B
$GPRMC,080205.541,A,5135.7915,N,00147.5733,W,0.000000,,190609,,*0F
$GPVTG,,T,,M,0.000000,N,0.000000,K*4E
$GPGGA,080206.541,5135.7852,N,00147.5720,W,1,03,6.0,161.9,M,48.0,M,0.0,0000*62
$GPGSA,A,2,04,02,23,,,,,,,,,,20.9,6.0,20.0*3B
$GPRMC,080206.541,A,5135.7852,N,00147.5720,W,0.000000,,190609,,*0C
$GPVTG,,T,,M,0.000000,N,0.000000,K*4E
$GPGGA,080207.541,5135.7858,N,00147.5733,W,1,03,6.0,161.9,M,48.0,M,0.0,0000*6B
$GPGSA,A,2,04,02,23,,,,,,,,,,20.9,6.0,20.0*3B
$GPGSV,3,1,09,13,82,090,00,04,62,225,33,25,48,133,00,02,45,293,38*7C
$GPGSV,3,2,09,23,45,061,47,07,32,156,00,20,15,105,00,10,07,284,00*7B
$GPGSV,3,3,09,16,06,056,00*42
$GPRMC,080207.541,A,5135.7858,N,00147.5733,W,0.000000,,190609,,*05
$GPVTG,,T,,M,0.000000,N,0.000000,K*4E
$GPGGA,080208.541,5135.7845,N,00147.5723,W,1,03,6.0,161.9,M,48.0,M,0.0,0000*69
$GPGSA,A,2,04,02,23,,,,,,,,,,20.9,6.0,20.0*3B
$GPRMC,080208.541,A,5135.7845,N,00147.5723,W,0.000000,,190609,,*07
$GPVTG,,T,,M,0.000000,N,0.000000,K*4E
$GPGGA,080209.541,5135.7790,N,00147.5725,W,1,03,6.0,161.9,M,48.0,M,0.0,0000*69
$GPGSA,A,2,04,02,23,,,,,,,,,,20.9,6.0,20.0*3B
$GPRMC,080209.541,A,5135.7790,N,00147.5725,W,0.000000,,190609,,*07
$GPVTG,,T,,M,0.000000,N,0.000000,K*4E
$GPGGA,080210.541,5135.7787,N,00147.5708,W,1,03,6.0,161.9,M,48.0,M,0.0,0000*68
$GPGSA,A,2,04,02,23,,,,,,,,,,20.9,6.0,20.0*3B
$GPRMC,080210.541,A,5135.7787,N,00147.5708,W,0.000000,,190609,,*06
$GPVTG,,T,,M,0.000000,N,0.000000,K*4E
$GPGGA,080211.540,5135.7924,N,00147.5704,W,1,04,2.3,269.6,M,48.0,M,0.0,0000*67
$GPGSA,A,3,04,25,02,23,,,,,,,,,11.1,2.3,10.9*3A
$GPRMC,080211.540,A,5135.7924,N,00147.5704,W,0.000000,,190609,,*0D
$GPVTG,,T,,M,0.000000,N,0.000000,K*4E
$GPGGA,080212.540,5135.7889,N,00147.5704,W,1,04,2.2,236.4,M,48.0,M,0.0,0000*6B
$GPGSA,A,3,04,25,02,23,,,,,,,,,9.8,2.2,9.5*3F
$GPGSV,3,1,09,13,82,090,00,04,62,225,33,25,48,133,32,02,45,293,38*7D
$GPGSV,3,2,09,23,45,061,46,07,32,156,00,20,15,105,00,10,07,284,00*7A
$GPGSV,3,3,09,16,06,056,00*42
$GPRMC,080212.540,A,5135.7889,N,00147.5704,W,0.088102,,190609,,*0B
$GPVTG,,T,,M,0.088102,N,0.163161,K*4F
$GPGGA,080213.540,5135.7889,N,00147.5697,W,1,04,2.3,238.7,M,48.0,M,0.0,0000*6D
$GPGSA,A,3,04,25,02,23,,,,,,,,,11.0,2.3,10.7*35
$GPRMC,080213.540,A,5135.7889,N,00147.5697,W,0.081343,,190609,,*0F
$GPVTG,,T,,M,0.081343,N,0.150645,K*40
$GPGGA,080214.540,5135.7915,N,00147.5702,W,1,04,2.3,251.0,M,48.0,M,0.0,0000*6B
$GPGSA,A,3,04,25,02,23,,,,,,,,,11.0,2.3,10.7*35
$GPRMC,080214.540,A,5135.7915,N,00147.5702,W,0.047588,,190609,,*0A
$GPVTG,,T,,M,0.047588,N,0.088131,K*4B
$GPGGA,080215.540,5135.7928,N,00147.5704,W,1,04,2.3,250.0,M,48.0,M,0.0,0000*63
$GPGSA,A,3,04,25,02,23,,,,,,,,,11.0,2.3,10.8*3A
$GPRMC,080215.540,A,5135.7928,N,00147.5704,W,0.067059,,190609,,*08
$GPVTG,,T,,M,0.067059,N,0.124190,K*4C
$GPGGA,080216.540,5135.7936,N,00147.5709,W,1,04,2.3,251.5,M,48.0,M,0.0,0000*66
$GPGSA,A,3,04,25,02,23,,,,,,,,,11.0,2.3,10.8*3A
$GPRMC,080216.540,A,5135.7936,N,00147.5709,W,0.055948,,190609,,*01
$GPVTG,,T,,M,0.055948,N,0.103613,K*4D
$GPGGA,080217.540,5135.7940,N,00147.5714,W,1,04,2.3,250.9,M,48.0,M,0.0,0000*67
$GPGSA,A,3,04,25,02,23,,,,,,,,,11.0,2.3,10.8*3A
$GPGSV,3,1,09,13,82,089,00,04,61,225,33,25,48,132,33,02,46,293,37*7A
$GPGSV,3,2,09,23,44,061,47,07,32,155,00,20,15,105,00,10,07,284,00*79
$GPGSV,3,3,09,16,06,056,00*42
$GPRMC,080217.540,A,5135.7940,N,00147.5714,W,0.104458,,190609,,*04
$GPVTG,,T,,M,0.104458,N,0.193453,K*4B
$GPGGA,080218.540,5135.7942,N,00147.5719,W,1,04,2.3,246.5,M,48.0,M,0.0,0000*6C
$GPGSA,A,3,04,25,02,23,,,,,,,,,11.0,2.3,10.8*3A
$GPRMC,080218.540,A,5135.7942,N,00147.5719,W,0.090833,,190609,,*09
$GPVTG,,T,,M,0.090833,N,0.168219,K*4A
$GPGGA,080219.540,5135.7943,N,00147.5722,W,1,04,2.3,242.1,M,48.0,M,0.0,0000*64
$GPGSA,A,3,04,25,02,23,,,,,,,,,11.1,2.3,10.8*3B
$GPRMC,080219.540,A,5135.7943,N,00147.5722,W,0.052068,,190609,,*09
$GPVTG,,T,,M,0.052068,N,0.096429,K*47
$GPGGA,080220.540,5135.7941,N,00147.5725,W,1,04,2.3,236.8,M,48.0,M,0.0,0000*61
$GPGSA,A,3,04,25,02,23,,,,,,,,,11.1,2.3,10.8*3B
$GPRMC,080220.540,A,5135.7941,N,00147.5725,W,0.035558,,190609,,*01
$GPVTG,,T,,M,0.035558,N,0.065851,K*4F
$GPGGA,080221.540,5135.7938,N,00147.5727,W,1,04,2.3,232.5,M,48.0,M,0.0,0000*65
$GPGSA,A,3,04,25,02,23,,,,,,,,,11.1,2.3,10.8*3B
$GPRMC,080221.540,A,5135.7938,N,00147.5727,W,0.092236,,190609,,*0E
$GPVTG,,T,,M,0.092236,N,0.170818,K*45
$GPGGA,080222.540,5135.7935,N,00147.5729,W,1,04,2.3,229.0,M,48.0,M,0.0,0000*6A
$GPGSA,A,3,04,25,02,23,,,,,,,,,11.1,2.3,10.9*3A
$GPGSV,3,1,09,13,82,089,00,04,61,225,33,25,48,132,33,02,46,293,38*75
$GPGSV,3,2,09,23,44,061,47,07,32,155,00,20,15,105,00,10,07,284,00*79
$GPGSV,3,3,09,16,06,056,00*42
$GPRMC,080222.540,A,5135.7935,N,00147.5729,W,0.024544,,190609,,*01
$GPVTG,,T,,M,0.024544,N,0.045454,K*49
$GPGGA,080223.540,5135.7932,N,00147.5731,W,1,04,2.3,225.6,M,48.0,M,0.0,0000*6F
$GPGSA,A,3,04,25,02,23,,,,,,,,,11.1,2.3,10.9*3A
$GPRMC,080223.540,A,5135.7932,N,00147.5731,W,0.071121,,190609,,*09
$GPVTG,,T,,M,0.071121,N,0.131714,K*4B
$GPGGA,080224.540,5135.7930,N,00147.5732,W,1,04,2.3,222.0,M,48.0,M,0.0,0000*68
$GPGSA,A,3,04,25,02,23,,,,,,,,,11.1,2.3,10.9*3A
105,00,10,07,284,00*7B
$GPGSV,3,3,09,16,06,056,00*42
$GPRMC,080152.542,A,5135.7927,N,00147.5688,W,0.000000,,190609,,*0D
$GPVTG,,T,,M,0.000000,N,0.000000,K*4E
$GPGGA,080153.542,5135.7906,N,00147.5698,W,1,03,6.0,161.9,M,48.0,M,0.0,0000*60
$GPGSA,A,2,04,02,23,,,,,,,,,,20.9,6.0,20.0*3B
$GPRMC,080153.542,A,5135.7906,N,00147.5698,W,0.000000,,190609,,*0E
$GPVTG,,T,,M,0.000000,N,0.000000,K*4E
$GPGGA,080154.542,5135.7887,N,00147.5695,W,1,03,6.0,161.9,M,48.0,M,0.0,0000*62
$GPGSA,A,2,04,02,23,,,,,,,,,,20.9,6.0,20.0*3B
$GPRMC,080154.542,A,5135.7887,N,00147.5695,W,0.000000,,190609,,*0C
$GPVTG,,T,,M,0.000000,N,0.000000,K*4E
$GPGGA,080155.542,5135.7848,N,00147.5699,W,1,03,6.0,161.9,M,48.0,M,0.0,0000*6C
$GPGSA,A,2,04,02,23,,,,,,,,,,20.9,6.0,20.0*3B
$GPRMC,080155.542,A,5135.7848,N,00147.5699,W,0.000000,,190609,,*02
$GPVTG,,T,,M,0.000000,N,0.000000,K*4E
$GPGGA,080156.541,5135.7848,N,00147.5706,W,1,03,6.0,161.9,M,48.0,M,0.0,0000*6B
$GPGSA,A,2,04,02,23,,,,,,,,,,20.9,6.0,20.0*3B
$GPRMC,080156.541,A,5135.7848,N,00147.5706,W,0.000000,,190609,,*05
$GPVTG,,T,,M,0.000000,N,0.000000,K*4E
$GPGGA,080157.541,5135.7857,N,00147.5708,W,1,03,6.0,161.9,M,48.0,M,0.0,0000*6A
$GPGSA,A,2,04,02,23,,,,,,,,,,20.9,6.0,20.0*3B
$GPGSV,3,1,09,13,82,090,00,04,62,225,35,25,48,133,00,02,45,293,38*7A
$GPGSV,3,2,09,23,45,061,46,07,32,156,00,20,15,105,00,10,07,284,00*7A
$GPGSV,3,3,09,16,06,056,00*42
$GPRMC,080157.541,A,5135.7857,N,00147.5708,W,0.000000,,190609,,*04
$GPVTG,,T,,M,0.000000,N,0.000000,K*4E
$GPGGA,080158.541,5135.7860,N,00147.5720,W,1,03,6.0,161.9,M,48.0,M,0.0,0000*6B
$GPGSA,A,2,04,02,23,,,,,,,,,,20.9,6.0,20.0*3B
$GPRMC,080158.541,A,5135.7860,N,00147.5720,W,0.000000,,190609,,*05
$GPVTG,,T,,M,0.000000,N,0.000000,K*4E
$GPGGA,080159.541,5135.7851,N,00147.5704,W,1,03,6.0,161.9,M,48.0,M,0.0,0000*6E
$GPGSA,A,2,04,02,23,,,,,,,,,,20.9,6.0,20.0*3B
$GPRMC,080159.541,A,5135.7851,N,00147.5704,W,0.000000,,190609,,*00
$GPVTG,,T,,M,0.000000,N,0.000000,K*4E
$GPGGA,080200.541,5135.7825,N,00147.5697,W,1,03,6.0,161.9,M,48.0,M,0.0,0000*69
$GPGSA,A,2,04,02,23,,,,,,,,,,20.9,6.0,20.0*3B
$GPRMC,080200.541,A,5135.7825,N,00147.5697,W,0.000000,,190609,,*07
$GPVTG,,T,,M,0.000000,N,0.000000,K*4E
$GPGGA,080201.541,5135.7867,N,00147.5687,W,1,03,6.0,161.9,M,48.0,M,0.0,0000*6F
$GPGSA,A,2,04,02,23,,,,,,,,,,20.9,6.0,20.0*3B
$GPRMC,080201.541,A,5135.7867,N,00147.5687,W,0.000000,,190609,,*01
$GPVTG,,T,,M,0.000000,N,0.000000,K*4E
$GPGGA,080202.541,5135.7878,N,00147.5703,W,1,03,6.0,161.9,M,48.0,M,0.0,0000*6F
$GPGSA,A,2,04,02,23,,,,,,,,,,20.9,6.0,20.0*3B
$GPGSV,3,1,09,13,82,090,00,04,62,225,35,25,48,133,00,02,45,293,38*7A
$GPGSV,3,2,09,23,45,061,46,07,32,156,00,20,15,105,00,10,07,284,00*7A
$GPGSV,3,3,09,16,06,056,00*42
$GPRMC,080202.541,A,5135.7878,N,00147.5703,W,0.000000,,190609,,*01
$GPVTG,,T,,M,0.000000,N,0.000000,K*4E
$GPGGA,080203.541,5135.7892,N,00147.5708,W,1,03,6.0,161.9,M,48.0,M,0.0,0000*61
$GPGSA,A,2,04,02,23,,,,,,,,,,20.9,6.0,20.0*3B
$GPRMC,080203.541,A,5135.7892,N,00147.5708,W,0.000000,,190609,,*0F
$GPVTG,,T,,M,0.000000,N,0.000000,K*4E
$GPGGA,080204.541,5135.7899,N,00147.5713,W,1,03,6.0,161.9,M,48.0,M,0.0,0000*67
$GPGSA,A,2,04,02,23,,,,,,,,,,20.9,6.0,20.0*3B
$GPRMC,080204.541,A,5135.7899,N,00147.5713,W,0.000000,,190609,,*09
$GPVTG,,T,,M,0.000000,N,0.000000,K*4E
$GPGGA,080205.541,5135.7915,N,00147.5733,W,1,03,6.0,161.9,M,48.0,M,0.0,0000*61
$GPGSA,A,2,04,02,23,,,,,,,,,,20.9,6.0,20.0*3B
$GPRMC,080205.541,A,5135.7915,N,00147.5733,W,0.000000,,190609,,*0F
$GPVTG,,T,,M,0.000000,N,0.000000,K*4E
$GPGGA,080206.541,5135.7852,N,00147.5720,W,1,03,6.0,161.9,M,48.0,M,0.0,0000*62
$GPGSA,A,2,04,02,23,,,,,,,,,,20.9,6.0,20.0*3B
$GPRMC,080206.541,A,5135.7852,N,00147.5720,W,0.000000,,190609,,*0C
$GPVTG,,T,,M,0.000000,N,0.000000,K*4E
$GPGGA,080207.541,5135.7858,N,00147.5733,W,1,03,6.0,161.9,M,48.0,M,0.0,0000*6B
$GPGSA,A,2,04,02,23,,,,,,,,,,20.9,6.0,20.0*3B
$GPGSV,3,1,09,13,82,090,00,04,62,225,33,25,48,133,00,02,45,293,38*7C
$GPGSV,3,2,09,23,45,061,47,07,32,156,00,20,15,105,00,10,07,284,00*7B
$GPGSV,3,3,09,16,06,056,00*42
$GPRMC,080207.541,A,5135.7858,N,00147.5733,W,0.000000,,190609,,*05
$GPVTG,,T,,M,0.000000,N,0.000000,K*4E
$GPGGA,080208.541,5135.7845,N,00147.5723,W,1,03,6.0,161.9,M,48.0,M,0.0,0000*69
$GPGSA,A,2,04,02,23,,,,,,,,,,20.9,6.0,20.0*3B
$GPRMC,080208.541,A,5135.7845,N,00147.5723,W,0.000000,,190609,,*07
$GPVTG,,T,,M,0.000000,N,0.000000,K*4E
$GPGGA,080209.541,5135.7790,N,00147.5725,W,1,03,6.0,161.9,M,48.0,M,0.0,0000*69
$GPGSA,A,2,04,02,23,,,,,,,,,,20.9,6.0,20.0*3B
$GPRMC,080209.541,A,5135.7790,N,00147.5725,W,0.000000,,190609,,*07
$GPVTG,,T,,M,0.000000,N,0.000000,K*4E
$GPGGA,080210.541,5135.7787,N,00147.5708,W,1,03,6.0,161.9,M,48.0,M,0.0,0000*68
$GPGSA,A,2,04,02,23,,,,,,,,,,20.9,6.0,20.0*3B
$GPRMC,080210.541,A,5135.7787,N,00147.5708,W,0.000000,,190609,,*06
$GPVTG,,T,,M,0.000000,N,0.000000,K*4E
$GPGGA,080211.540,5135.7924,N,00147.5704,W,1,04,2.3,269.6,M,48.0,M,0.0,0000*67
$GPGSA,A,3,04,25,02,23,,,,,,,,,11.1,2.3,10.9*3A
$GPRMC,080211.540,A,5135.7924,N,00147.5704,W,0.000000,,190609,,*0D
$GPVTG,,T,,M,0.000000,N,0.000000,K*4E
$GPGGA,080212.540,5135.7889,N,00147.5704,W,1,04,2.2,236.4,M,48.0,M,0.0,0000*6B
$GPGSA,A,3,04,25,02,23,,,,,,,,,9.8,2.2,9.5*3F
$GPGSV,3,1,09,13,82,090,00,04,62,225,33,25,48,133,32,02,45,293,38*7D
$GPGSV,3,2,09,23,45,061,46,07,32,156,00,20,15,105,00,10,07,284,00*7A
$GPGSV,3,3,09,16,06,056,00*42
$GPRMC,080212.540,A,5135.7889,N,00147.5704,W,0.088102,,190609,,*0B
$GPVTG,,T,,M,0.088102,N,0.163161,K*4F
$GPGGA,080213.540,5135.7889,N,00147.5697,W,1,04,2.3,238.7,M,48.0,M,0.0,0000*6D
$GPGSA,A,3,04,25,02,23,,,,,,,,,11.0,2.3,10.7*35
$GPRMC,080213.540,A,5135.7889,N,00147.5697,W,0.081343,,190609,,*0F
$GPVTG,,T,,M,0.081343,N,0.150645,K*40
$GPGGA,080214.540,5135.7915,N,00147.5702,W,1,04,2.3,251.0,M,48.0,M,0.0,0000*6B
$GPGSA,A,3,04,25,02,23,,,,,,,,,11.0,2.3,10.7*35
$GPRMC,080214.540,A,5135.7915,N,00147.5702,W,0.047588,,190609,,*0A
$GPVTG,,T,,M,0.047588,N,0.088131,K*4B
$GPGGA,080215.540,5135.7928,N,00147.5704,W,1,04,2.3,250.0,M,48.0,M,0.0,0000*63
$GPGSA,A,3,04,25,02,23,,,,,,,,,11.0,2.3,10.8*3A
$GPRMC,080215.540,A,5135.7928,N,00147.5704,W,0.067059,,190609,,*08
$GPVTG,,T,,M,0.067059,N,0.124190,K*4C
$GPGGA,080216.540,5135.7936,N,00147.5709,W,1,04,2.3,251.5,M,48.0,M,0.0,0000*66
$GPGSA,A,3,04,25,02,23,,,,,,,,,11.0,2.3,10.8*3A
$GPRMC,080216.540,A,5135.7936,N,00147.5709,W,0.055948,,190609,,*01
$GPVTG,,T,,M,0.055948,N,0.103613,K*4D
$GPGGA,080217.540,5135.7940,N,00147.5714,W,1,04,2.3,250.9,M,48.0,M,0.0,0000*67
$GPGSA,A,3,04,25,02,23,,,,,,,,,11.0,2.3,10.8*3A
$GPGSV,3,1,09,13,82,089,00,04,61,225,33,25,48,132,33,02,46,293,37*7A
$GPGSV,3,2,09,23,44,061,47,07,32,155,00,20,15,105,00,10,07,284,00*79
$GPGSV,3,3,09,16,06,056,00*42
$GPRMC,080217.540,A,5135.7940,N,00147.5714,W,0.104458,,190609,,*04
$GPVTG,,T,,M,0.104458,N,0.193453,K*4B
$GPGGA,080218.540,5135.7942,N,00147.5719,W,1,04,2.3,246.5,M,48.0,M,0.0,0000*6C
$GPGSA,A,3,04,25,02,23,,,,,,,,,11.0,2.3,10.8*3A
$GPRMC,080218.540,A,5135.7942,N,00147.5719,W,0.090833,,190609,,*09
$GPVTG,,T,,M,0.090833,N,0.168219,K*4A
$GPGGA,080219.540,5135.7943,N,00147.5722,W,1,04,2.3,242.1,M,48.0,M,0.0,0000*64
$GPGSA,A,3,04,25,02,23,,,,,,,,,11.1,2.3,10.8*3B
$GPRMC,080219.540,A,5135.7943,N,00147.5722,W,0.052068,,190609,,*09
$GPVTG,,T,,M,0.052068,N,0.096429,K*47
$GPGGA,080220.540,5135.7941,N,00147.5725,W,1,04,2.3,236.8,M,48.0,M,0.0,0000*61
$GPGSA,A,3,04,25,02,23,,,,,,,,,11.1,2.3,10.8*3B
$GPRMC,080220.540,A,5135.7941,N,00147.5725,W,0.035558,,190609,,*01
$GPVTG,,T,,M,0.035558,N,0.065851,K*4F
$GPGGA,080221.540,5135.7938,N,00147.5727,W,1,04,2.3,232.5,M,48.0,M,0.0,0000*65
$GPGSA,A,3,04,25,02,23,,,,,,,,,11.1,2.3,10.8*3B
$GPRMC,080221.540,A,5135.7938,N,00147.5727,W,0.092236,,190609,,*0E
$GPVTG,,T,,M,0.092236,N,0.170818,K*45
$GPGGA,080222.540,5135.7935,N,00147.5729,W,1,04,2.3,229.0,M,48.0,M,0.0,0000*6A
$GPGSA,A,3,04,25,02,23,,,,,,,,,11.1,2.3,10.9*3A
$GPGSV,3,1,09,13,82,089,00,04,61,225,33,25,48,132,33,02,46,293,38*75
$GPGSV,3,2,09,23,44,061,47,07,32,155,00,20,15,105,00,10,07,284,00*79
$GPGSV,3,3,09,16,06,056,00*42
$GPRMC,080222.540,A,5135.7935,N,00147.5729,W,0.024544,,190609,,*01
$GPVTG,,T,,M,0.024544,N,0.045454,K*49
$GPGGA,080223.540,5135.7932,N,00147.5731,W,1,04,2.3,225.6,M,48.0,M,0.0,0000*6F
$GPGSA,A,3,04,25,02,23,,,,,,,,,11.1,2.3,10.9*3A
$GPRMC,080223.540,A,5135.7932,N,00147.5731,W,0.071121,,190609,,*09
$GPVTG,,T,,M,0.071121,N,0.131714,K*4B
$GPGGA,080224.540,5135.7930,N,00147.5732,W,1,04,2.3,222.0,M,48.0,M,0.0,0000*68
$GPGSA,A,3,04,25,02,23,,,,,,,,,11.1,2.3,10.9*3A
105,00,10,07,284,00*7B
$GPGSV,3,3,09,16,06,056,00*42
$GPRMC,080152.542,A,5135.7927,N,00147.5688,W,0.000000,,190609,,*0D
$GPVTG,,T,,M,0.000000,N,0.000000,K*4E
$GPGGA,080153.542,5135.7906,N,00147.5698,W,1,03,6.0,161.9,M,48.0,M,0.0,0000*60
$GPGSA,A,2,04,02,23,,,,,,,,,,20.9,6.0,20.0*3B
$GPRMC,080153.542,A,5135.7906,N,00147.5698,W,0.000000,,190609,,*0E
$GPVTG,,T,,M,0.000000,N,0.000000,K*4E
$GPGGA,080154.542,5135.7887,N,00147.5695,W,1,03,6.0,161.9,M,48.0,M,0.0,0000*62
$GPGSA,A,2,04,02,23,,,,,,,,,,20.9,6.0,20.0*3B
$GPRMC,080154.542,A,5135.7887,N,00147.5695,W,0.000000,,190609,,*0C
$GPVTG,,T,,M,0.000000,N,0.000000,K*4E
$GPGGA,080155.542,5135.7848,N,00147.5699,W,1,03,6.0,161.9,M,48.0,M,0.0,0000*6C
$GPGSA,A,2,04,02,23,,,,,,,,,,20.9,6.0,20.0*3B
$GPRMC,080155.542,A,5135.7848,N,00147.5699,W,0.000000,,190609,,*02
$GPVTG,,T,,M,0.000000,N,0.000000,K*4E
$GPGGA,080156.541,5135.7848,N,00147.5706,W,1,03,6.0,161.9,M,48.0,M,0.0,0000*6B
$GPGSA,A,2,04,02,23,,,,,,,,,,20.9,6.0,20.0*3B
$GPRMC,080156.541,A,5135.7848,N,00147.5706,W,0.000000,,190609,,*05
$GPVTG,,T,,M,0.000000,N,0.000000,K*4E
$GPGGA,080157.541,5135.7857,N,00147.5708,W,1,03,6.0,161.9,M,48.0,M,0.0,0000*6A
$GPGSA,A,2,04,02,23,,,,,,,,,,20.9,6.0,20.0*3B
$GPGSV,3,1,09,13,82,090,00,04,62,225,35,25,48,133,00,02,45,293,38*7A
$GPGSV,3,2,09,23,45,061,46,07,32,156,00,20,15,105,00,10,07,284,00*7A
$GPGSV,3,3,09,16,06,056,00*42
$GPRMC,080157.541,A,5135.7857,N,00147.5708,W,0.000000,,190609,,*04
$GPVTG,,T,,M,0.000000,N,0.000000,K*4E
$GPGGA,080158.541,5135.7860,N,00147.5720,W,1,03,6.0,161.9,M,48.0,M,0.0,0000*6B
$GPGSA,A,2,04,02,23,,,,,,,,,,20.9,6.0,20.0*3B
$GPRMC,080158.541,A,5135.7860,N,00147.5720,W,0.000000,,190609,,*05
$GPVTG,,T,,M,0.000000,N,0.000000,K*4E
$GPGGA,080159.541,5135.7851,N,00147.5704,W,1,03,6.0,161.9,M,48.0,M,0.0,0000*6E
$GPGSA,A,2,04,02,23,,,,,,,,,,20.9,6.0,20.0*3B
$GPRMC,080159.541,A,5135.7851,N,00147.5704,W,0.000000,,190609,,*00
$GPVTG,,T,,M,0.000000,N,0.000000,K*4E
$GPGGA,080200.541,5135.7825,N,00147.5697,W,1,03,6.0,161.9,M,48.0,M,0.0,0000*69
$GPGSA,A,2,04,02,23,,,,,,,,,,20.9,6.0,20.0*3B
$GPRMC,080200.541,A,5135.7825,N,00147.5697,W,0.000000,,190609,,*07
$GPVTG,,T,,M,0.000000,N,0.000000,K*4E
$GPGGA,080201.541,5135.7867,N,00147.5687,W,1,03,6.0,161.9,M,48.0,M,0.0,0000*6F
$GPGSA,A,2,04,02,23,,,,,,,,,,20.9,6.0,20.0*3B
$GPRMC,080201.541,A,5135.7867,N,00147.5687,W,0.000000,,190609,,*01
$GPVTG,,T,,M,0.000000,N,0.000000,K*4E
$GPGGA,080202.541,5135.7878,N,00147.5703,W,1,03,6.0,161.9,M,48.0,M,0.0,0000*6F
$GPGSA,A,2,04,02,23,,,,,,,,,,20.9,6.0,20.0*3B
$GPGSV,3,1,09,13,82,090,00,04,62,225,35,25,48,133,00,02,45,293,38*7A
$GPGSV,3,2,09,23,45,061,46,07,32,156,00,20,15,105,00,10,07,284,00*7A
$GPGSV,3,3,09,16,06,056,00*42
$GPRMC,080202.541,A,5135.7878,N,00147.5703,W,0.000000,,190609,,*01
$GPVTG,,T,,M,0.000000,N,0.000000,K*4E
$GPGGA,080203.541,5135.7892,N,00147.5708,W,1,03,6.0,161.9,M,48.0,M,0.0,0000*61
$GPGSA,A,2,04,02,23,,,,,,,,,,20.9,6.0,20.0*3B
$GPRMC,080203.541,A,5135.7892,N,00147.5708,W,0.000000,,190609,,*0F
$GPVTG,,T,,M,0.000000,N,0.000000,K*4E
$GPGGA,080204.541,5135.7899,N,00147.5713,W,1,03,6.0,161.9,M,48.0,M,0.0,0000*67
$GPGSA,A,2,04,02,23,,,,,,,,,,20.9,6.0,20.0*3B
$GPRMC,080204.541,A,5135.7899,N,00147.5713,W,0.000000,,190609,,*09
$GPVTG,,T,,M,0.000000,N,0.000000,K*4E
$GPGGA,080205.541,5135.7915,N,00147.5733,W,1,03,6.0,161.9,M,48.0,M,0.0,0000*61
$GPGSA,A,2,04,02,23,,,,,,,,,,20.9,6.0,20.0*3B
$GPRMC,080205.541,A,5135.7915,N,00147.5733,W,0.000000,,190609,,*0F
$GPVTG,,T,,M,0.000000,N,0.000000,K*4E
$GPGGA,080206.541,5135.7852,N,00147.5720,W,1,03,6.0,161.9,M,48.0,M,0.0,0000*62
$GPGSA,A,2,04,02,23,,,,,,,,,,20.9,6.0,20.0*3B
$GPRMC,080206.541,A,5135.7852,N,00147.5720,W,0.000000,,190609,,*0C
$GPVTG,,T,,M,0.000000,N,0.000000,K*4E
$GPGGA,080207.541,5135.7858,N,00147.5733,W,1,03,6.0,161.9,M,48.0,M,0.0,0000*6B
$GPGSA,A,2,04,02,23,,,,,,,,,,20.9,6.0,20.0*3B
$GPGSV,3,1,09,13,82,090,00,04,62,225,33,25,48,133,00,02,45,293,38*7C
$GPGSV,3,2,09,23,45,061,47,07,32,156,00,20,15,105,00,10,07,284,00*7B
$GPGSV,3,3,09,16,06,056,00*42
$GPRMC,080207.541,A,5135.7858,N,00147.5733,W,0.000000,,190609,,*05
$GPVTG,,T,,M,0.000000,N,0.000000,K*4E
$GPGGA,080208.541,5135.7845,N,00147.5723,W,1,03,6.0,161.9,M,48.0,M,0.0,0000*69
$GPGSA,A,2,04,02,23,,,,,,,,,,20.9,6.0,20.0*3B
$GPRMC,080208.541,A,5135.7845,N,00147.5723,W,0.000000,,190609,,*07
$GPVTG,,T,,M,0.000000,N,0.000000,K*4E
$GPGGA,080209.541,5135.7790,N,00147.5725,W,1,03,6.0,161.9,M,48.0,M,0.0,0000*69
$GPGSA,A,2,04,02,23,,,,,,,,,,20.9,6.0,20.0*3B
$GPRMC,080209.541,A,5135.7790,N,00147.5725,W,0.000000,,190609,,*07
$GPVTG,,T,,M,0.000000,N,0.000000,K*4E
$GPGGA,080210.541,5135.7787,N,00147.5708,W,1,03,6.0,161.9,M,48.0,M,0.0,0000*68
$GPGSA,A,2,04,02,23,,,,,,,,,,20.9,6.0,20.0*3B
$GPRMC,080210.541,A,5135.7787,N,00147.5708,W,0.000000,,190609,,*06
$GPVTG,,T,,M,0.000000,N,0.000000,K*4E
$GPGGA,080211.540,5135.7924,N,00147.5704,W,1,04,2.3,269.6,M,48.0,M,0.0,0000*67
$GPGSA,A,3,04,25,02,23,,,,,,,,,11.1,2.3,10.9*3A
$GPRMC,080211.540,A,5135.7924,N,00147.5704,W,0.000000,,190609,,*0D
$GPVTG,,T,,M,0.000000,N,0.000000,K*4E
$GPGGA,080212.540,5135.7889,N,00147.5704,W,1,04,2.2,236.4,M,48.0,M,0.0,0000*6B
$GPGSA,A,3,04,25,02,23,,,,,,,,,9.8,2.2,9.5*3F
$GPGSV,3,1,09,13,82,090,00,04,62,225,33,25,48,133,32,02,45,293,38*7D
$GPGSV,3,2,09,23,45,061,46,07,32,156,00,20,15,105,00,10,07,284,00*7A
$GPGSV,3,3,09,16,06,056,00*42
$GPRMC,080212.540,A,5135.7889,N,00147.5704,W,0.088102,,190609,,*0B
$GPVTG,,T,,M,0.088102,N,0.163161,K*4F
$GPGGA,080213.540,5135.7889,N,00147.5697,W,1,04,2.3,238.7,M,48.0,M,0.0,0000*6D
$GPGSA,A,3,04,25,02,23,,,,,,,,,11.0,2.3,10.7*35
$GPRMC,080213.540,A,5135.7889,N,00147.5697,W,0.081343,,190609,,*0F
$GPVTG,,T,,M,0.081343,N,0.150645,K*40
$GPGGA,080214.540,5135.7915,N,00147.5702,W,1,04,2.3,251.0,M,48.0,M,0.0,0000*6B
$GPGSA,A,3,04,25,02,23,,,,,,,,,11.0,2.3,10.7*35
$GPRMC,080214.540,A,5135.7915,N,00147.5702,W,0.047588,,190609,,*0A
$GPVTG,,T,,M,0.047588,N,0.088131,K*4B
$GPGGA,080215.540,5135.7928,N,00147.5704,W,1,04,2.3,250.0,M,48.0,M,0.0,0000*63
$GPGSA,A,3,04,25,02,23,,,,,,,,,11.0,2.3,10.8*3A
$GPRMC,080215.540,A,5135.7928,N,00147.5704,W,0.067059,,190609,,*08
$GPVTG,,T,,M,0.067059,N,0.124190,K*4C
$GPGGA,080216.540,5135.7936,N,00147.5709,W,1,04,2.3,251.5,M,48.0,M,0.0,0000*66
$GPGSA,A,3,04,25,02,23,,,,,,,,,11.0,2.3,10.8*3A
$GPRMC,080216.540,A,5135.7936,N,00147.5709,W,0.055948,,190609,,*01
$GPVTG,,T,,M,0.055948,N,0.103613,K*4D
$GPGGA,080217.540,5135.7940,N,00147.5714,W,1,04,2.3,250.9,M,48.0,M,0.0,0000*67
$GPGSA,A,3,04,25,02,23,,,,,,,,,11.0,2.3,10.8*3A
$GPGSV,3,1,09,13,82,089,00,04,61,225,33,25,48,132,33,02,46,293,37*7A
$GPGSV,3,2,09,23,44,061,47,07,32,155,00,20,15,105,00,10,07,284,00*79
$GPGSV,3,3,09,16,06,056,00*42
$GPRMC,080217.540,A,5135.7940,N,00147.5714,W,0.104458,,190609,,*04
$GPVTG,,T,,M,0.104458,N,0.193453,K*4B
$GPGGA,080218.540,5135.7942,N,00147.5719,W,1,04,2.3,246.5,M,48.0,M,0.0,0000*6C
$GPGSA,A,3,04,25,02,23,,,,,,,,,11.0,2.3,10.8*3A
$GPRMC,080218.540,A,5135.7942,N,00147.5719,W,0.090833,,190609,,*09
$GPVTG,,T,,M,0.090833,N,0.168219,K*4A
$GPGGA,080219.540,5135.7943,N,00147.5722,W,1,04,2.3,242.1,M,48.0,M,0.0,0000*64
$GPGSA,A,3,04,25,02,23,,,,,,,,,11.1,2.3,10.8*3B
$GPRMC,080219.540,A,5135.7943,N,00147.5722,W,0.052068,,190609,,*09
$GPVTG,,T,,M,0.052068,N,0.096429,K*47
$GPGGA,080220.540,5135.7941,N,00147.5725,W,1,04,2.3,236.8,M,48.0,M,0.0,0000*61
$GPGSA,A,3,04,25,02,23,,,,,,,,,11.1,2.3,10.8*3B
$GPRMC,080220.540,A,5135.7941,N,00147.5725,W,0.035558,,190609,,*01
$GPVTG,,T,,M,0.035558,N,0.065851,K*4F
$GPGGA,080221.540,5135.7938,N,00147.5727,W,1,04,2.3,232.5,M,48.0,M,0.0,0000*65
$GPGSA,A,3,04,25,02,23,,,,,,,,,11.1,2.3,10.8*3B
$GPRMC,080221.540,A,5135.7938,N,00147.5727,W,0.092236,,190609,,*0E
$GPVTG,,T,,M,0.092236,N,0.170818,K*45
$GPGGA,080222.540,5135.7935,N,00147.5729,W,1,04,2.3,229.0,M,48.0,M,0.0,0000*6A
$GPGSA,A,3,04,25,02,23,,,,,,,,,11.1,2.3,10.9*3A
$GPGSV,3,1,09,13,82,089,00,04,61,225,33,25,48,132,33,02,46,293,38*75
$GPGSV,3,2,09,23,44,061,47,07,32,155,00,20,15,105,00,10,07,284,00*79
$GPGSV,3,3,09,16,06,056,00*42
$GPRMC,080222.540,A,5135.7935,N,00147.5729,W,0.024544,,190609,,*01
$GPVTG,,T,,M,0.024544,N,0.045454,K*49
$GPGGA,080223.540,5135.7932,N,00147.5731,W,1,04,2.3,225.6,M,48.0,M,0.0,0000*6F
$GPGSA,A,3,04,25,02,23,,,,,,,,,11.1,2.3,10.9*3A
$GPRMC,080223.540,A,5135.7932,N,00147.5731,W,0.071121,,190609,,*09
